City,Region,Longitude,Latitude,tif_count,BIO1 Annual Mean Temp,BIO2 Mean Diurnal Range,BIO3 Isothermality,BIO4 Temp Seasonality,BIO5 Max Temp Warmest Month,BIO6 Min Temp Coldest Month,BIO7 Temperature Range,BIO8 Mean Temp Wettest Quarter,BIO9 Mean Temp Driest Quarter,BIO10 Mean Temp Warmest Quarter,BIO11 Mean Temp Coldest Quarter,BIO12 Annual Precipitation,BIO13 Precipitation Wettest Month,BIO14 Precipitation Driest Month,BIO15 Precipitation Seasonality,BIO16 Precipitation Wettest Quarter,BIO17 Precipitation Driest Quarter,BIO18 Precipitation Warmest Quarter,BIO19 Precipitation Coldest Quarter,Cluster,PC1,PC2,Baseline_Stability,Stability
Aalborg,EUROPE,9.929700855,57.03963675,156.0,7.777483998,7.24471158,31.0706356,608.1640359,20.84294884,-2.473076911,23.31602562,11.95598302,2.824786316,15.50982909,0.747542734,615.9935897,70.07051282,30.98076923,24.2366518,198.2051282,104.3653846,171.8269231,131.6602564,B,-2.5435293152533514,1.7285678874048613,0.5457239819004517,0.5820820576455851
Aarhus,EUROPE,10.17503086,56.16925926,270.0,7.932052446,7.003858021,28.70662917,623.1432366,20.36000007,-4.041851847,24.40185192,9.318641912,2.76462963,15.77567897,0.718827157,632.2074074,66.41851852,33.76296296,22.18843077,196.6777778,109.0296296,177.4333333,127.7777778,B,-2.7271546374871742,1.8947725862076625,0.5457239819004517,0.5803703867588534
Aba,AFRICA,7.334607543,5.088379205,327.0,26.44898068,8.367125336,74.78662753,92.93312523,32.67339442,21.4865442,11.18685022,25.24505612,26.92186533,27.65127428,25.24505612,2425.996942,386.9296636,25.21100917,64.15282713,1057.865443,118.2538226,371.2996942,1057.865443,I,5.228494583416471,1.655143230113321,0.7556818181818179,0.7712247510407884
Abadan,ASIA,48.27458333,30.34569444,59.99999999,25.32916651,14.49833334,38.40364037,904.7019307,45.04000022,7.2883334,37.75166683,15.54999998,35.84999955,35.84999955,13.72222225,169.0666667,38.28333333,0.0,97.93044294,99.16666666,0.0,0.0,98.5,F,0.15590063883688451,-4.40854976744974,0.7862568807339444,0.758771577280117
Abaetetuba,SOUTH AMERICA,-48.88125,-1.71875,12.0,26.46145805,8.000694394,84.07074928,40.58287398,31.39166625,21.87499952,9.51666673,25.98055569,26.94444482,26.94444482,25.95138899,2682.833333,438.8333333,61.25,66.69234912,1282.833333,208.6666667,208.6666667,1230.166667,I,5.953700204168955,2.854260964264246,0.7556818181818179,0.7677407862283034
Abai,SOUTH AMERICA,-55.94583333,-26.0375,4.000000002,21.93124962,11.51249981,54.11301136,367.4322433,32.29999924,11.0250001,21.27499914,24.18750095,17.35833359,26.21666718,17.35833359,1569.75,188.0,77.75,25.39712429,468.0,274.75,377.75,274.75,E,1.969152695246815,1.5711813206032401,0.7493412384716736,0.5485242887010034
Aigua,SOUTH AMERICA,-54.76666667,-34.19791667,4.000000001,16.18020868,9.910416603,45.72287846,433.9073639,27.70000076,6.024999976,21.67500067,13.86666656,20.20416737,21.47500038,10.89583325,1244.0,116.0,87.0,7.311022997,334.0,281.0,291.0,328.0,E,0.30628532387186064,2.555686843110099,0.7493412384716736,0.7397643020132357
Biltine,AFRICA,20.91944444,14.53055556,3.0,28.68472226,15.013889,59.10979589,299.0439046,40.40000153,15.0,25.40000153,28.89999962,26.36666616,32.46666718,24.73888906,253.6666667,103.3333333,0.0,156.906779,218.6666667,0.0,30.0,0.0,F,2.0687497376519497,-4.776254193621909,0.7862568807339444,0.7746026385653657
Abakan,ASIA,91.43396057,53.72213262,93.0,1.723387094,12.16505379,24.78486194,1358.926582,26.38817205,-22.6946236,49.0827955,18.01362011,-13.12849462,18.01362011,-15.63028672,338.6129032,67.07526882,5.924731183,79.44816368,187.3978495,22.6344086,187.3978495,25.72043011,A,-5.020654410990891,-0.4201532791569003,0.9987781731909829,0.988425249467952
Abancay,SOUTH AMERICA,-72.88928571,-13.63035714,14.0,18.65952383,15.49642856,86.09802955,62.38242803,28.23571437,10.2357143,18.00000027,18.32499995,18.20357146,19.42857129,18.19047628,1293.571429,243.5714286,18.0,78.41187068,686.6428571,67.35714285,269.7142857,331.5714286,G,1.9955762030350375,-0.3083229498789088,0.9862783810463968,0.9751136697747959
Abau,MELANESIA,148.5583333,-10.04166667,1.0,25.46249962,7.808333397,66.73789215,113.5806656,31.60000038,19.89999962,11.70000076,25.96666718,25.88333321,26.66666603,23.86666679,2038.0,233.0,112.0,19.26593972,643.0000001,424.0,563.9999996,453.0000004,J,4.178411361911086,3.6023768010535706,0.8980272108843527,0.9106319154200715
Abaza,ASIA,90.09035088,52.65263158,19.0,0.943859636,11.88859653,25.67117872,1261.51008,24.23157883,-22.07894757,46.31052599,16.00701759,-12.63157885,16.00701759,-15.11052644,509.4210526,84.21052632,11.63157894,56.63335941,227.3684211,44.26315789,227.3684211,60.26315789,A,-4.929105930219421,0.4481601660683046,0.9987781731909829,0.9889696933407861
Abbottabad,ASIA,73.08325142,34.07186539,759.5490645,19.1209316,12.892232,38.33179644,733.4126107,35.89899239,2.270179212,33.62881333,25.98451434,15.04198577,27.39540098,9.515235867,1159.793359,245.889049,21.17044399,76.1253811,580.5017652,94.89963174,560.2369912,207.0637889,F,0.8188663608912378,-0.5836767049015827,0.21374311926605535,0.3732891023083942
Abeche,AFRICA,20.82916667,13.83869048,14.0,28.84107154,15.15714264,60.09622983,272.5463518,40.79999924,15.57857159,25.22142751,28.20238113,27.21785709,32.49166679,25.60714258,376.8571429,158.9285714,0.0,159.088271,323.0,0.0,46.0,0.0,F,2.409033022143551,-4.660493232362128,0.7862568807339444,0.7346176696628809
Fada,AFRICA,21.58333333,17.19166667,1.0,27.24166679,15.51666641,55.02363968,448.3648682,39.70000076,11.5,28.20000076,30.48333359,22.61666679,31.85000038,20.96666718,63.0,36.0,0.0,169.8940887,57.0,0.0,20.0,0.0,F,1.2152124550382852,-5.068120166929922,0.7862568807339444,0.7755006243060695
Abengourou,AFRICA,-3.494444444,6.7375,48.0,26.44218743,8.460069517,70.2203474,116.3184013,33.0937504,21.04583343,12.04791697,26.94097201,26.99652791,27.86944469,24.88124994,1240.583333,206.0,8.395833333,60.44920238,515.3125,76.47916667,317.3958333,314.3125,G,3.3723338078375655,-0.6081821610890337,0.9862783810463968,0.9746471810422005
Abeokuta,AFRICA,3.329311343,7.125028935,288.0,26.80515042,8.733391179,70.73520141,132.4585168,33.96319458,21.61701384,12.34618074,26.09282412,27.64890053,28.43391195,25.08622685,1249.704861,204.7916667,12.21875,64.13919388,540.2430556,54.65277778,253.7256944,415.9201389,G,3.4746736492543198,-0.7376216358124739,0.9862783810463968,0.9735449089018564
Aberdeen1,NORTH AMERICA,-98.48098291,45.46837607,39.0,6.524893186,13.04722224,27.44420859,1243.766946,29.81025598,-17.73076952,47.54102501,18.80726467,-9.514529864,21.18418782,-9.514529864,512.1282051,86.69230769,10.0,59.43212988,226.974359,34.05128205,218.7179487,34.05128205,A,-3.959464085000267,-0.619329160961589,0.9987781731909829,0.9875756279260371
Aberdeen2,NORTH AMERICA,-123.8421667,46.97866667,49.99999998,10.40400003,8.600666704,43.93006203,428.0414325,21.66599998,2.093999987,19.57200016,5.822333345,15.57366673,15.85766661,5.429000034,2272.86,361.14,42.16,62.67596039,1030.06,160.46,182.72,979.5,I,0.8513814848455492,3.7657950003545597,0.02840909090909086,0.06342549852151906
Aberdeen3,EUROPE,-2.139763375,57.15889918,162.0,8.105504112,7.380761332,38.38972873,443.8447102,18.87839508,-0.351234572,19.22962946,5.679732493,8.052777757,13.78199586,2.916563814,779.925926,81.18518519,52.48148148,16.9135924,235.1975309,160.617284,180.4444444,204.0493827,B,-2.0786583808274157,2.6895321540523147,0.5457239819004517,0.5757619222433873
Abha,ASIA,42.50435606,18.22140152,43.99999999,20.30492418,13.90378789,55.50844453,421.0770465,32.35454546,7.306818225,25.04772741,20.58863657,20.29659093,25.28446986,15.05,250.3409091,49.52272727,5.931818182,75.03246793,131.8863636,24.75,65.22727273,28.47727273,D,-0.058679035474916555,-2.469930251705217,0.924294205052006,0.9175415175190074
Colinas,SOUTH AMERICA,-44.25416667,-6.025,2.0,26.48958302,11.1624999,69.11775589,109.5852699,34.79999924,18.65000057,16.14999866,25.78333282,25.88333321,28.11666679,25.52499962,1262.5,257.5,7.0,82.57538986,647.5,36.5,182.0,88.99999999,G,3.1860995838435064,-1.6600634769239382,0.9862783810463968,0.9735831010471001
Abidjan,AFRICA,-4.024486715,5.379181763,552.0,26.46927844,6.503170244,64.83307534,122.1082659,31.59365931,21.5677537,10.02590561,27.09100234,27.10166067,27.70908818,24.69743356,1707.025362,440.1630435,21.67753623,80.06699929,857.9076087,145.3949275,327.7101449,269.990942,H,4.3384068793293595,0.5820503273552246,0.8463961038961035,0.8472545934436412
Abilene,NORTH AMERICA,-99.76521739,32.43967391,138.0,18.11488529,13.7429347,38.68482247,804.8103032,35.17101443,-0.354347833,35.52536273,23.79323683,7.903381704,27.76111098,7.903381704,616.5652174,84.35507246,24.06521739,40.682627,216.5507246,84.08695652,186.4565217,84.08695652,D,-0.886195194625899,-1.3352077294413265,0.924294205052006,0.9159811981989135
Abohar,ASIA,74.33190576,30.33160458,1250.599139,24.46003353,14.12395519,39.81678596,766.5247113,41.04890167,5.576884864,35.47201698,30.86458816,19.45378533,32.74884723,14.19441749,356.9533602,100.131551,2.702542575,120.5687487,270.3097324,17.34588341,127.5178276,26.26124751,F,0.5728538866407272,-3.862914509469971,0.7862568807339444,0.7669544925737091
Abomey,AFRICA,1.891247567,6.871754027,1421.624684,27.07018469,8.943979246,70.62063007,130.1324952,34.29059799,21.62490696,12.66569104,27.19811857,27.55939793,28.62829034,25.38514554,1006.455453,162.7072021,5.134210937,63.61432702,430.717193,46.01761467,234.4837169,300.8474653,G,3.1638157576729906,-1.289721263898924,0.9862783810463968,0.9736881997331678
Abong Mbang,AFRICA,13.17083333,3.991666667,2.0,23.71250057,10.20000029,71.83098602,77.7841568,31.0,16.79999924,14.20000076,23.24166679,23.625,24.86666679,23.04166603,1604.5,298.0,21.0,63.28079605,661.5,90.0,310.5,467.5,G,3.286192806088594,0.2919201577321287,0.9862783810463968,0.9732524573901292
Abra Pampa,SOUTH AMERICA,-65.70138889,-22.71805556,6.0,10.81875006,17.02361107,62.24365362,356.5093486,22.06666692,-5.283333301,27.35000006,14.24999984,6.083333333,14.31388903,5.916666508,220.1666667,58.16666666,0.0,114.5883115,155.5,1.0,124.1666667,2.0,D,-2.049692954361154,-1.709299813195812,0.924294205052006,0.9163817090389316
Abu Dhabi,ASIA,54.40727273,24.44878788,109.9999999,27.46071961,10.37356055,40.12960985,591.957049,40.17999996,14.34636364,25.83363632,20.48454543,30.20696976,34.17469694,19.87621202,62.93636364,22.11818182,0.0,114.7994979,45.96363636,1.0,2.0,35.7,F,0.8694507625697926,-3.9605831276348558,0.7862568807339444,0.7626178312541952
Al Ahmadi,ASIA,48.06574074,29.09490741,18.0,25.77731482,15.42685196,39.07099957,919.3195021,46.11666595,6.633333259,39.48333232,15.79166677,36.66574139,36.66574139,14.05185186,105.6111111,22.22222222,0.0,92.05088636,62.55555556,0.0,0.0,59.22222222,F,0.07524501963843057,-4.698523297210756,0.7862568807339444,0.7686006691400629
Abu Kamal,ASIA,40.91550179,34.50134409,93.0,20.72141569,13.13225803,35.37751495,913.8507179,39.90430106,2.786021486,37.11827986,10.95197134,30.91756253,31.40896047,9.129032279,133.6021505,26.01075269,0.0,80.2036625,64.23655914,0.0,1.0,58.64516129,D,-0.9876261172489573,-3.3955015143043634,0.924294205052006,0.9171479924627345
Abuja,AFRICA,7.480218447,9.067354369,206.0,26.29648058,10.70663424,62.19709107,158.5707152,35.17038836,17.95533992,17.21504844,24.77451458,25.94223302,28.57524267,24.77451458,1369.354369,283.2912621,0.927184466,94.73461684,785.4660194,9.325242719,111.2572816,785.4660194,G,3.593554281600763,-1.0993792402757496,0.9862783810463968,0.9735548838200488
Acapulco,NORTH AMERICA,-99.84281971,16.88710692,159.0,27.20733752,9.020545066,76.72103599,80.51288569,32.82389942,21.04905662,11.7748428,27.76215931,26.68710692,28.08396233,26.09696019,1289.320755,299.0691824,1.943396226,116.1317958,816.5220126,9.610062893,563.3018868,22.89937107,G,4.076937133896757,-1.3428654345522335,0.9862783810463968,0.9734300378309924
Acarau,SOUTH AMERICA,-40.12291667,-2.877083333,4.0,27.6520834,10.57083344,80.84949493,63.63432503,34.42500019,21.34999943,13.07500076,27.02083302,27.93749952,28.4124999,26.98333359,1308.25,343.25,2.75,115.5675831,872.25,10.75,39.5,516.7500006,G,4.310464724922735,-1.6057067478360365,0.9862783810463968,0.9734105427498418
Acarigua,SOUTH AMERICA,-69.21199187,9.569308943,82.0,26.78953241,10.2099592,78.62174132,62.36005365,33.70975592,20.72317079,12.98658513,26.17235775,27.21768275,27.61016276,26.01585363,1174.243902,219.8658537,12.95121951,69.08224952,547.304878,54.62195123,107.0487805,533.6951219,G,3.555307110525455,-0.9601109451670572,0.9862783810463968,0.9732625896840834
Acatlan,NORTH AMERICA,-98.0547619,18.20595238,6.999999998,24.31607165,17.03690502,72.19069127,178.990315,35.97142901,12.37142835,23.60000093,24.69047628,22.04523822,26.54761887,22.04523822,606.1428571,128.5714286,3.714285713,99.52680206,335.2857143,14.0,188.0,14.0,F,1.7003833197081328,-3.188307807290391,0.7862568807339444,0.7743073362563875
Ad Diwaniyah,ASIA,44.92207602,31.99327485,57.0,23.76038006,14.61257305,37.82774848,915.9921993,43.59122795,4.96315793,38.62806949,12.05584802,34.42017605,34.42017605,12.05584802,111.4912281,22.22807017,0.0,85.16906979,59.19298245,0.0,0.0,59.19298245,F,-0.42648058181227555,-4.136918958724821,0.7862568807339444,0.7617417290016072
Ad Nabk,ASIA,36.72777778,34.03253968,21.0,13.56071436,13.95000008,42.05419559,744.0992606,31.87142808,-1.29999997,33.1714285,4.402381011,22.36825389,22.36825389,4.402381011,187.952381,36.47619048,0.0,76.75787245,93.85714287,0.0,0.0,93.85714287,D,-2.0989443937809713,-2.096645366935169,0.924294205052006,0.9167164797045632
Al Wajh,ASIA,36.45333333,26.25,9.999999972,24.84708309,10.87416677,50.24678459,411.6074005,34.85000038,13.21000004,21.64000015,23.6083334,29.25166664,29.37666645,19.44499989,23.0,7.0,0.0,81.99732971,15.0,0.0,0.0,11.0,F,0.625580130534538,-3.2418589848227044,0.7862568807339444,0.7691154589348571
Accra,AFRICA,-0.179944072,5.645234899,744.9999999,27.15471475,8.007863538,71.97305008,118.5882159,33.21248319,22.08791963,11.12456357,27.52519022,27.92210284,28.48404931,25.4921029,933.9892617,190.8174497,13.97181208,67.91888243,453.5409396,73.10067114,213.3946309,172.9181208,G,3.2392755420410344,-1.0917363474501998,0.9862783810463968,0.9734813860182299
Achinsk,ASIA,90.47426471,56.26405229,102.0,1.326879093,8.909967338,20.72925719,1247.138608,24.15490207,-18.82745107,42.98235317,16.77565363,-11.94166666,16.77565363,-13.97058819,437.9019608,73.70588235,11.21568627,55.55439126,199.5882353,41.37254902,199.5882353,53.03921569,A,-4.773993137833956,0.6397100510212919,0.9987781731909829,0.9890120805165321
Acu,SOUTH AMERICA,-36.91428571,-5.575,7.000000001,27.61249978,9.413095338,78.34939575,93.63046701,33.84285791,21.82857105,12.01428686,28.13809531,27.90238108,28.56190463,26.25714275,716.1428571,184.1428571,3.0,105.185863,449.5714286,12.0,165.1428571,77.42857142,G,3.2260149871737474,-2.324986236297585,0.9862783810463968,0.9751160477262175
Ad Dakhla,AFRICA,-15.94464286,23.70357143,14.0,20.44613075,7.051785707,58.03541265,170.9538879,26.40714305,14.25714288,12.15000016,21.3309521,20.00357137,22.68095262,18.45833329,47.00000001,15.78571429,0.0,111.6788183,21.78571429,2.0,20.57142857,18.85714286,D,0.36845711654603375,-1.9625773451036939,0.924294205052006,0.9070349014911182
Ad Damman,ASIA,50.10762852,26.39351161,402.0,26.28225538,11.17375626,37.29310942,724.1025284,41.33457728,11.37636818,29.95820913,17.856675,33.46770315,34.58412112,16.93992537,78.8482587,20.91542289,0.0,103.5905848,53.69402985,0.0,0.0,39.64676617,F,0.44976609175611193,-3.976943828320853,0.7862568807339444,0.7720550409056507
Apalachicola,NORTH AMERICA,-85.0,29.72916667,5.999999991,20.34236113,9.68194453,38.90771802,591.7274882,31.79999924,6.916666746,24.88333289,27.08611075,23.14444415,27.19722207,12.81944466,1486.666667,205.1666667,75.0,35.18881035,570.8333333,278.5,520.5,315.0,E,1.7104673673397561,1.8652208888005455,0.7493412384716736,0.6330200708848753
Adana,ASIA,35.32170068,37.0064966,245.0,18.83352044,11.23363949,38.84658094,697.9366525,33.46979577,4.55428571,28.91551004,10.31802724,27.21027201,27.21027201,10.24523813,704.0040816,129.8408163,7.889795917,67.83787541,331.7428571,33.62448979,33.62448979,331.7428571,C,-0.2038439368803767,-1.3234986904723627,0.4260344827586204,0.41225611056986283
Adapazari,ASIA,30.38877246,40.7500499,167.0,14.39673156,9.416916145,36.62383222,633.8106039,28.43173645,2.717365283,25.71437128,8.287225566,21.63802395,22.25548904,6.83353295,789.3592814,107.7065868,44.09580838,30.11041033,277.2155689,138.8443114,141.5508982,264.8862275,C,-0.8982301982565228,0.8968756528096891,0.5109770114942525,0.5351640505197989
Addis Ababa,AFRICA,39.02709078,8.713908744,1399.0,17.40356505,14.2211401,76.86338815,105.5278899,26.36233024,7.871908534,18.49042174,16.9608411,16.27541101,18.8133905,16.266345,935.0114367,219.1915654,5.318799142,92.098877,549.691208,30.78341673,206.9606862,62.0986419,D,0.9965972944457464,-0.968983186782286,0.0282466567607726,0.07086437008964995
Adelaide,AUSTRALIA,138.5916312,-34.907011,938.9999996,16.30424208,10.16144834,47.20663493,408.6401131,28.35899894,6.848562294,21.51043658,11.2962371,21.21640041,21.33274759,11.2962371,556.2854099,77.59424919,17.8370607,44.38726625,217.8743344,66.72417465,68.12992545,217.8743344,C,-0.5061350231135846,-0.31681286731441016,0.5109770114942525,0.5769272326236965
Aden,ASIA,45.01527778,12.80092593,35.99999998,28.64224556,7.180786901,47.61365668,272.2618646,36.28055562,21.19999981,15.08055581,25.88333321,31.27777778,31.83611107,25.34907405,52.16666666,8.111111111,1.555555556,37.81852839,18.13888889,8.027777777,9.222222222,14.16666667,F,1.5524674660810849,-2.6732217243020364,0.7862568807339444,0.7785633176326775
Agordat,AFRICA,37.87666667,15.54833333,10.0,28.96416664,14.79833317,66.56949005,216.4639206,40.35000038,18.12000046,22.22999992,28.5283329,26.41666641,31.72666664,26.41666641,331.3,112.5,0.0,141.7358612,262.6,2.0,51.4,2.0,F,2.46019114422724,-4.487819875386182,0.7862568807339444,0.7412630506545577
Agra,ASIA,78.14190074,27.17592647,4265.955724,25.42563961,13.79712455,39.48254928,701.1519853,41.91470189,6.969771123,34.9449308,29.60852694,19.15762831,33.07576914,15.79822669,784.2932758,261.1620558,3.284461225,137.0087867,624.5436218,26.63084075,284.5496139,33.6197511,F,1.6550184511946695,-3.281950201839532,0.7862568807339444,0.7027900303387465
Ambatondrazaka,AFRICA,48.41527778,-17.82291667,12.0,21.16423607,12.54652762,67.36500486,245.804587,29.76666657,11.14166681,18.62499984,23.63888915,17.91111104,23.63888915,17.91111104,1083.583333,263.0,5.25,109.512289,690.9166667,21.83333333,690.9166667,23.41666667,G,2.1824531499719266,-0.9209424897027457,0.9862783810463968,0.9739460402473548
Adi Ugri,AFRICA,38.81489171,14.87416568,302.9569378,20.0834548,14.75126222,71.89344076,165.9878412,30.65100121,10.13337961,20.51762159,20.576728,18.27162095,22.34523573,18.08743136,632.373285,200.3510218,1.346583909,128.9653685,448.4960719,10.9421545,140.668558,21.31169054,G,1.2446510850075383,-2.396515663299311,0.008805528134254698,0.26991422590000963
Adigrat,AFRICA,39.47854167,14.26166667,40.00000001,15.93562498,14.88958333,71.70593452,170.8112667,25.74749985,4.982500004,20.76499982,17.01666651,14.40500002,17.9933332,13.74833329,566.625,162.6,6.324999995,109.3211512,347.875,29.37499999,136.45,32.92499999,D,0.1119452989693714,-1.4940301815097257,0.924294205052006,0.9174250298118475
Adiyaman,ASIA,38.26777778,37.7604321,135.0,16.96271606,11.57160497,31.40801962,936.2780518,37.39999997,0.565925928,36.83407392,5.649876545,28.43975307,28.51086419,5.649876545,622.0740741,123.3259259,1.0,79.42596396,311.9925926,8.0,12.34074074,311.9925926,C,-0.9864575122800139,-1.9247794303762793,0.4260344827586204,0.4098304629852074
Ado Ekiti,AFRICA,5.114623884,7.711366021,1804.388462,24.68739043,9.313929188,67.65057873,126.0604754,32.10725696,18.33385916,13.7733978,23.27724329,24.99348375,26.39667301,23.1641807,1356.217078,243.4951538,7.971843933,68.98222866,562.3748202,47.97539316,232.2716993,559.7085032,G,3.1092482672448827,-0.3607673318563159,0.9862783810463968,0.9743120820248212
Adrar,AFRICA,-0.29375,27.87060185,36.0,25.18865723,15.68055558,39.13518079,895.2202674,45.46111128,5.394444492,40.0666666,24.03657404,33.38055531,36.20740753,14.17037037,13.13888889,3.0,0.0,48.23584207,7.25,0.0,1.0,3.25,F,-0.11770325375926544,-4.495825670683819,0.7862568807339444,0.7720610981108083
Agri,ASIA,43.03991228,39.72587719,38.00000001,6.355592138,12.83925435,29.22379233,1097.82526,29.21578939,-14.71842106,43.93421063,11.05394744,18.94078962,18.94078962,-7.806578862,511.4736842,72.26315789,19.0,36.88511407,183.6578947,64.65789473,64.65789473,120.4210526,B,-3.512552064957691,-0.2951480801369725,0.4542760180995479,0.4222840435809725
Bossembele,AFRICA,17.64,5.27,5.000000001,24.44833336,11.91333313,67.61278229,109.7176071,33.63999939,16.02000008,17.61999931,23.41333351,24.54666672,26.05,23.41333351,1490.6,256.6,11.0,70.48975525,691.2,51.0,217.6,691.2,G,3.219641726530958,-0.44382868804308123,0.9862783810463968,0.9743108921132982
Afyon,ASIA,30.5594246,38.76170635,84.00000001,10.9791666,11.83988098,35.88874404,792.5978641,29.33809523,-3.64999999,32.98809492,1.200595251,20.25158725,20.66726171,1.200595251,493.4642857,67.25,11.91666667,41.71586114,172.2619048,45.5,67.73809524,172.2619048,C,-2.426575866890509,-0.4309182252759112,0.5109770114942525,0.5628717926863627
Agadez,AFRICA,7.985470085,16.98760684,39.0,28.43931643,14.59871784,49.87295796,505.0126014,41.63846099,12.36666648,29.27179483,31.51196612,25.29572658,33.54700842,21.36666645,113.7948718,48.51282051,0.0,157.4200803,98.10256411,0.0,53.02564103,0.0,F,1.4413017507172106,-5.010354618839296,0.7862568807339444,0.7752051682477773
Agadir,AFRICA,-9.552846791,30.39648033,161.0,18.96705488,9.747877926,50.74293236,318.230747,27.59627326,8.399378895,19.19689437,14.85703932,22.38509313,22.90942024,14.85703932,204.5341615,49.13043478,0.093167702,91.09188066,118.8198758,2.832298137,3.714285715,118.8198758,D,-0.24963169726182552,-1.7776377277547557,0.924294205052006,0.917758032787658
Agana,MICRONESIA,144.7887255,13.4879902,67.99999994,26.86997554,5.805637163,76.39009801,57.12820721,30.60294132,23.00294138,7.599999933,27.08063729,26.43750006,27.45220588,26.04999988,2229.970588,351.2794118,74.17647059,52.8328959,972.1176471,246.7794118,535.9558823,278.9558824,J,5.017197835680119,2.4613646781707095,0.8980272108843527,0.9094948431578591
Agartala,ASIA,91.18710931,24.0508473,5002.963516,25.08349396,9.990404428,45.14004254,383.8797453,32.81155563,10.68788744,22.12366819,28.12562229,19.26785768,28.16315562,19.26785768,2217.045039,457.5587158,5.192594198,86.49205283,1174.373664,32.76336677,1160.593296,32.76336677,H,3.7531077332357667,0.5863194899399863,0.8463961038961035,0.8463512175848628
Agboville,AFRICA,-4.21127451,5.93872549,34.0,26.95281848,7.680146891,69.91193525,112.8673868,32.76176453,21.77647052,10.98529401,27.50931364,27.46911778,28.23578425,25.38382356,1349.882353,248.7058824,11.88235294,60.83389237,589.5588235,94.05882353,317.2058823,286.8823529,G,3.673461650309546,-0.32707462824989825,0.9862783810463968,0.9734244492544438
Agen,EUROPE,0.6290625,44.19947917,80.0,12.78166659,10.11708331,39.95900755,569.9448524,26.87249999,1.553750017,25.31874971,8.036458367,19.90375004,19.90375004,6.064166683,917.55,90.3625,56.275,14.12204189,257.575,184.825,184.825,248.0625,C,-1.0725216041501442,1.6151071186925918,0.5109770114942525,0.5364543570522304
Agrinio,EUROPE,21.39728261,38.62952899,46.0,16.22853261,12.21503621,41.47929706,643.2121263,32.7173913,3.26956522,29.44782618,12.85326077,24.28405766,24.28405766,8.747101453,840.2173913,150.4565217,13.93478261,65.60868189,375.2826087,47.54347826,47.54347826,333.3913044,C,-0.30180358988303274,-0.9392816406757597,0.4260344827586204,0.4154372728302754
Agua Prieta,NORTH AMERICA,-109.5469697,31.33636364,55.0,17.03053034,18.30166657,50.20021328,701.0601563,35.41090906,-1.04545455,36.45636361,24.91969684,19.941515,25.65848482,8.572727238,362.1818182,88.8,6.727272727,85.68040952,206.8,27.6,180.9818182,66.98181818,D,-0.625753932728738,-2.9347585321537766,0.924294205052006,0.915816547457721
Aguascalientes,NORTH AMERICA,-102.2987569,21.90529466,181.0,17.43381669,17.03006441,63.30776929,305.4941561,30.27348066,3.372375675,26.90110496,19.67246775,16.38646407,20.77366478,13.32974215,474.2651934,120.5248619,1.193370166,105.9024441,305.801105,13.53038674,207.9723757,32.0,D,-0.037997668945167075,-2.360754383383791,0.924294205052006,0.916232053264605
Ahar,ASIA,47.06458333,38.48333333,20.0,10.73458343,11.79666657,32.24879265,903.0530243,29.93999977,-6.639999962,36.57999992,9.867499924,21.25833311,21.60999994,-0.615833327,336.8,56.95,8.299999999,49.95005226,138.9,32.55,51.65,67.3,C,-2.619338264803042,-1.0470878218995887,0.4260344827586204,0.5284231343482273
Ahmadabad,ASIA,72.70438733,22.96249302,8259.250416,27.0105669,13.68039477,45.89430661,450.3421441,40.9929805,11.17922937,29.81375097,28.55480166,25.95395228,32.34229824,20.83151065,749.3036488,278.5996399,0.718467137,153.2105823,631.7215126,3.836032285,90.19487979,5.259823195,F,2.2945294171204664,-3.8140430472262876,0.7701284403669719,0.6562206890447656
Ahmednagar,ASIA,74.747,19.10783333,150.0,25.25038884,13.6195555,51.23200111,330.9702863,38.81866681,12.2346667,26.58400019,25.05144442,23.6232221,29.62255516,21.29677774,508.24,139.4066667,1.0,102.1311407,290.72,5.0,111.6933333,36.28666667,F,1.4420209093398544,-3.3218996643674634,0.7862568807339444,0.7763928988203861
Ahwaz,ASIA,48.66719725,31.31382647,267.0,25.2750937,14.56167295,37.56932122,935.9518037,45.68277158,6.92471913,38.75805221,14.08402004,36.31654159,36.31654159,13.41192264,255.8464419,62.50187266,0.0,106.0584979,156.2546816,0.0,0.0,156.2022472,F,0.2677335759743769,-4.375297286082349,0.7862568807339444,0.7714301694473701
Aiken,NORTH AMERICA,-81.7253663,33.54432234,91.00000001,17.22692295,14.13571413,42.37550836,735.6987741,33.67032925,0.31208792,33.35824103,26.12032953,17.75805834,26.12032953,7.940109871,1206.32967,122.0989011,70.74725275,19.06824148,362.6153846,233.1648352,362.6153846,314.6703297,E,0.23189431511914063,0.8568238041960796,0.7493412384716736,0.7395103392009952
Aiquile,SOUTH AMERICA,-65.18333333,-18.19375,4.000000001,18.21875,15.62499976,65.65151024,244.1208992,28.92499971,5.12499988,23.79999971,20.11666584,14.79583311,20.58749962,14.79583311,543.0,121.5,1.0,99.9793644,328.75,5.750000001,174.5,5.750000001,D,0.15554877606920325,-2.120311230385949,0.924294205052006,0.9184236609696944
Aix-en-Provence,EUROPE,5.419122807,43.53394737,95.0,14.13061407,10.44017545,37.53726489,628.5618325,29.708421,1.895789457,27.81263155,14.69368427,22.18543858,22.18543858,6.867017525,655.6842105,94.31578947,14.18947368,35.89021904,228.9789474,91.71578947,91.71578947,171.368421,C,-1.0328748806206338,-0.28555365922611825,0.5109770114942525,0.5665929627199483
Aizawl,ASIA,92.71316667,23.71,49.99999999,20.72866661,9.384333362,50.29177498,288.7159784,28.15800011,9.495999985,18.66200016,23.07066654,16.37366667,23.07066654,16.37366667,2236.56,423.76,12.12,79.41761704,1094.42,53.76,1094.42,53.76,H,3.013867867684731,1.5097292701901972,0.8463961038961035,0.8517809333877147
Ajaccio,EUROPE,8.7585,41.9475,49.99999996,14.94633331,9.609333286,39.59065567,541.1835156,28.35599998,4.092000027,24.26400028,12.76066668,21.71166672,21.8826667,8.894666633,653.66,97.0,9.84,48.97381004,262.18,53.9,83.52,196.26,C,-0.7875706275309642,-0.37194749321560455,0.5109770114942525,0.5777110980289223
Ajdabiya,AFRICA,20.22121212,30.76363636,22.00000001,20.9009467,11.54356051,46.19100467,550.1205084,33.2636365,8.272727359,24.99090958,13.85227234,26.9803029,26.9803029,13.85227234,129.9090909,38.45454545,0.0,116.9806075,94.45454546,0.545454545,0.545454545,94.45454546,D,-0.20150962519933263,-2.9246739240722004,0.924294205052006,0.9168330056683386
Al Quwayiyah,ASIA,45.27647059,24.07107843,17.0,26.17990202,13.99313725,40.84321908,771.3073659,42.8647057,8.605882476,34.25882317,26.34901956,34.92745119,34.92745119,16.2372551,133.4117647,43.0,1.63e-10,110.0354251,85.5882353,1.647058825,1.647058825,33.17647059,F,0.6779024712750954,-4.573512990756307,0.7862568807339444,0.7698378224148934
Ajmer,ASIA,74.65873591,26.46654589,207.0,25.15497178,13.47709347,42.05444861,602.4921247,39.59420292,7.558454141,32.03574871,28.44983885,23.81127216,31.71376809,16.83534611,486.3091788,179.5024155,1.782608696,153.9121484,410.236715,7.913043479,228.4009662,9.570048309,F,1.3450019991363635,-3.7410746995872843,0.7862568807339444,0.7721365239645401
Aketi,AFRICA,23.77696078,2.739705882,17.0,25.26397077,10.54950955,80.74843149,37.1780593,32.09411621,19.02941188,13.06470433,24.95490242,25.22254888,25.76666664,24.89607867,1662.0,223.1764706,42.88235294,40.38677642,578.0588235,163.8823529,415.8235295,508.1176471,G,3.7333712514083177,0.8852096942761765,0.9862783810463968,0.9236206593570669
Akhtubinsk,EUROPE,46.1640625,48.28151042,32.0,8.531640619,9.5763022,23.51772439,1177.046593,30.12812495,-10.58750001,40.71562505,20.87500012,0.973958321,22.72135407,-6.146874979,296.1875,35.28125,18.84375,20.7912116,90.28125,58.78125,84.1875,73.0,A,-3.4865677348036317,-0.24668700549019842,0.9987781731909829,0.9883272180545292
Akita,ASIA,140.0953579,39.73389262,148.9999999,11.35816556,7.602349032,24.1073524,891.1108665,28.48187918,-3.050335553,31.53221489,22.45492179,8.800447496,22.45492179,0.836912743,1630.442953,173.5771812,96.77181208,21.38584458,498.6308725,297.7181208,498.6308725,414.3557047,E,-0.47210475654963785,3.5854473479074738,0.7493412384716736,0.7393417715242735
Akola,ASIA,76.98755814,20.70515504,215.0,27.57949622,13.07612397,46.21826828,416.1485995,42.51534874,14.22511626,28.29023251,27.07139536,23.79953485,33.37984502,22.70186044,710.2093023,196.6186046,3.0,122.2416823,500.5395349,14.00465116,137.227907,19.06976744,F,2.2067840322211283,-3.605884125428135,0.7862568807339444,0.69422611907166
Al Amarah,ASIA,47.14814815,31.8505144,81.0,24.26440338,14.61954759,38.69813646,902.5071569,43.96666741,6.188888803,37.77777877,12.89917721,34.89856042,34.89856042,12.89917721,199.2962963,44.74074074,0.0,98.86184052,119.8148148,0.0,0.0,119.8148148,F,-0.04372014315887392,-4.188134758326512,0.7862568807339444,0.7624996093243238
Boston,NORTH AMERICA,-71.24636379,42.28998031,6009.0,9.561186008,11.3367532,30.78127893,923.159955,28.20014978,-8.604443343,36.80459314,1.900196931,17.10106507,20.83879461,-1.956240639,1162.939757,111.6984523,84.36312198,8.431005305,318.052255,264.5986021,271.4546514,293.3636212,B,-2.1187453059865224,2.6253754982583515,0.5457239819004517,0.5744847255997536
Akron,NORTH AMERICA,-81.49852518,41.10651086,848.7085322,9.776547355,10.77781445,29.70348471,943.6955279,28.13593719,-8.148271664,36.2842089,18.98296402,-1.888352851,21.07568302,-2.254265234,969.8745897,99.93635442,55.3666399,17.66116393,286.4183888,190.943105,283.2285349,191.2030585,B,-2.2698413935495863,1.640102118859235,0.5457239819004517,0.5752406004213455
Aksu,ASIA,80.265625,41.174375,80.0,10.90119787,14.4463541,30.83902798,1170.354419,32.59374998,-14.25000005,46.84375029,23.62666667,-3.701874971,23.62666667,-4.779583305,73.92499999,16.6375,1.0125,73.59965973,40.55,4.6125,40.55,5.6,A,-3.620497690877348,-2.28471932258538,0.9987781731909829,0.9880638547136591
Aksum,AFRICA,38.74228395,14.11018519,27.0,18.46388895,15.26604942,73.27743304,155.4488695,29.09629631,8.262962907,20.83333347,18.27654344,17.13641972,20.61111083,16.92283945,662.5555556,216.2592593,1.962962963,133.7389255,483.962963,7.111111111,122.4814815,17.62962963,D,0.9743100704389979,-2.221896542102826,0.924294205052006,0.7484866697869148
Akureyi,NORTH AMERICA,-18.11775362,65.68695652,23.00000003,3.391485504,6.422826104,32.35757106,510.5820737,14.39999991,-5.452173876,19.85217376,3.091304374,5.678985492,10.26304349,-2.023913037,553.0,73.21739131,23.13043478,30.61980985,192.8695652,84.26086957,116.1304348,148.173913,B,-3.3544248909443795,2.3768979220280455,0.5457239819004517,0.5778410512629344
Chota,SOUTH AMERICA,-78.655,-6.553333333,5.0,15.70666657,13.01999989,87.85446472,30.63862343,22.78000031,7.960000134,14.82000027,15.92000008,15.25333328,15.9666666,15.25333328,930.8,126.2,27.4,43.18610153,327.8,90.8,276.0,90.8,D,0.6113179915659472,0.4471099512850293,0.031129271916790414,0.042680024570626245
Al Ayn,ASIA,55.72495704,24.19621993,194.0,28.34761604,13.0343213,43.36788899,656.7428337,42.84587624,12.7948453,30.05103105,24.38754289,35.79888338,35.79888338,19.79776637,125.3195876,38.12371134,1.0,105.0518419,82.20103093,4.201030927,4.201030927,60.83505155,F,1.180547231975384,-4.449572497023332,0.7862568807339444,0.7590168595662725
Al Bayda,AFRICA,21.625,32.75833333,1.0,17.07083321,9.725000381,43.6098671,506.3391418,28.60000038,6.300000191,22.29999924,10.8166666,22.98333359,22.98333359,10.8166666,453.0,103.0,0.0,101.3203888,289.0,1.0,1.0,289.0,D,-0.3969242901005909,-1.3755297551956578,0.924294205052006,0.9186960236518006
Al Fallujah,ASIA,43.7780303,33.35429293,33.0,22.88977282,14.76439389,37.33977266,941.9004147,43.56363655,4.024242401,39.53939438,12.05303036,34.12121258,34.12121258,11.08181832,133.3030303,22.90909091,0.0,85.1015981,67.15151515,0.0,0.0,67.09090909,D,-0.556504480106573,-4.0896660126038435,0.924294205052006,0.9175749595536993
Al Fujayrah,ASIA,56.33921569,25.10857843,34.00000003,28.24779398,10.36372544,42.35965729,522.6286352,39.96470575,15.50000003,24.46470575,21.99362738,33.56372564,33.90294131,21.44068634,119.8823529,35.64705882,1.95e-10,112.2214465,82.76470588,2.000000001,2.147058825,74.17647059,F,1.2721487956378028,-3.8933337066974927,0.7862568807339444,0.76411494841215
Al Hasakah,ASIA,40.74305556,36.50815972,47.99999999,18.26371543,14.17256951,36.43895721,943.3954175,39.55416656,0.660416666,38.89374987,8.090278049,29.75902792,29.75902792,6.533333282,306.6041667,51.52083333,0.0,79.22932084,146.9375,2.479166667,2.479166667,139.9375,D,-1.220217221948809,-3.0438639780688224,0.924294205052006,0.9167387104510305
Al Hillah,ASIA,44.4044702,32.48576159,151.0,23.6708885,13.98294719,35.56122988,954.0397052,43.84966884,4.530463563,39.31920535,11.64746139,34.86081701,34.86081701,11.64746139,107.4834437,23.59602649,0.0,91.41677801,61.54966887,0.0,0.0,61.54966887,F,-0.47294027532494165,-4.146330196208887,0.7862568807339444,0.7659576511909318
Al Hudaydah,ASIA,42.98916667,14.80183333,99.99999995,29.77491663,9.030833268,53.75886566,304.8337674,37.89600002,21.11199999,16.78400003,31.91466665,30.06916666,33.19333321,25.91033346,56.77,11.9,0.94,55.15650074,26.84,7.579999999,16.17,11.89,F,1.9337135616147647,-3.334987627972732,0.7862568807339444,0.7502577218975225
Al Kharj,ASIA,47.31691919,24.15315657,66.0,26.77758832,11.74507582,41.98560484,619.5872017,40.86969722,12.89696961,27.97272769,22.91085867,33.89293,33.89293,18.8560609,102.3787879,32.28787879,0.0,110.2727384,66.04545454,1.0,1.0,28.6969697,F,0.9059875000898145,-4.141271435990623,0.7862568807339444,0.7632519176019017
Collipulli,SOUTH AMERICA,-72.440625,-37.94895833,7.999999998,11.9921875,12.03020811,52.4764061,403.9634857,25.87499952,2.950000048,22.92499971,7.802083493,17.2458334,17.2458334,7.274999976,1335.125,243.25,30.375,74.12286186,677.625,98.5,98.5,662.0,C,0.12941702440653968,1.2777853772040124,0.5109770114942525,0.5357956270577057
Al Hufuf,ASIA,49.57114325,25.39676309,121.0,26.65041315,11.58898056,38.49006987,711.0614775,41.7462808,11.63884305,30.10743791,20.46322301,34.78278212,34.78278212,17.47809903,79.66942149,24.71900826,0.0,103.4893026,51.29752066,0.0,0.0,32.98347107,F,0.6271396364956374,-4.1329797667598305,0.7862568807339444,0.7674708523903871
Al Jaghbub,AFRICA,24.51666667,29.75,1.0,21.78750038,13.64166641,45.32115173,630.032959,36.79999924,6.699999809,30.09999847,15.13333321,25.08333397,29.16666603,13.73333263,13.00000001,4.000000008,0.0,69.28203588,9.000000008,0.0,0.0,9.000000008,D,-0.6042023813796964,-3.2859384769528526,0.924294205052006,0.916796258754368
Al Jahra,ASIA,47.67940252,29.33144654,53.00000001,25.98081769,15.51069186,39.28807262,925.6586189,46.34905696,6.869811373,39.47924524,15.9490565,36.87138367,36.87138367,14.30125784,109.509434,22.79245283,0.0,89.64760906,62.0754717,0.0,0.0,58.0754717,F,0.11179680975533832,-4.719014724670002,0.7862568807339444,0.7593420791492729
Al Jawf,AFRICA,23.2877193,24.21973684,19.0,23.88464918,14.32456137,44.84535559,689.021555,38.99473652,7.052631554,31.94210474,16.53421051,28.77982451,31.39561412,14.73245606,2.0,1.0,0.0,33.36423874,2.0,0.0,0.0,1.0,D,-0.44064679820155817,-3.3928311356627634,0.924294205052006,0.9179621965265177
Al Jubayl,ASIA,49.64402174,26.99547101,46.00000002,25.98179345,11.87554335,37.72813432,750.6068832,41.91739116,10.44347827,31.4739129,17.39782582,33.7369568,34.68297121,16.27355041,91.49999999,19.47826087,0.0,97.15836832,57.65217391,0.0,0.0,48.63043478,F,0.3455170012706261,-4.009904200790628,0.7862568807339444,0.7646567145387312
Al Karak,ASIA,35.71751894,31.14905303,88.0,16.16429927,12.25208331,42.17476064,657.3294976,31.00568195,1.957954554,29.04772748,7.658333372,23.42443178,23.42443178,7.658333372,357.5909091,84.98863637,0.0,112.2941597,232.2159091,0.0,0.0,232.2159091,D,-1.0585743733002426,-2.0176083958472697,0.924294205052006,0.9165652236642702
Al Khalil,ASIA,35.10528736,31.52885057,145.0,15.86718392,10.39908049,41.11854409,591.6185273,28.8786206,3.593103454,25.2855172,8.242298853,22.27885056,22.38758616,8.242298853,414.6551724,103.1034483,0.0,110.5399201,262.0896552,0.0,0.0,262.0896552,D,-0.8879275300786789,-1.5034365374322392,0.924294205052006,0.9174185756160266
Al Khums,AFRICA,14.25833333,32.65059524,14.00000001,20.36666693,8.53095225,39.28433636,509.718519,31.43571418,9.721428598,21.71428572,15.97738082,25.97142887,26.62380995,14.26666655,281.2142857,58.42857143,0.0,91.11252975,157.3571429,0.571428572,9.285714287,146.8571429,D,-0.04859275193500873,-2.0160956108763717,0.924294205052006,0.9173848007586998
Al Kut,ASIA,45.81818182,32.51742424,44.0,24.17301156,14.60056823,37.2172653,933.1510259,44.375,5.145454428,39.22954603,12.46439396,35.2079551,35.2079551,12.46439396,148.3181818,32.22727273,0.0,96.27823292,88.40909091,0.0,0.0,88.40909091,F,-0.23899151182438144,-4.2779482930860375,0.7862568807339444,0.7667100804585738
Al Ladhiqiyah,ASIA,35.81911232,35.56422101,183.9999999,19.26381337,8.596557918,36.85703678,586.0072642,30.83532623,7.516847857,23.31847843,11.87436599,25.75036248,26.29836955,11.87436599,832.3423913,176.4782609,2.201086956,87.83016719,454.1358696,10.86956522,18.26630435,454.1358696,C,0.3760741989849293,-0.8980241736691711,0.4260344827586204,0.41784835350942817
Al Marj,AFRICA,20.82857143,32.49325397,21.0,17.68908737,10.90674609,46.40195211,506.4611642,30.01904769,6.5142857,23.50476174,11.40634932,23.47619066,23.52380952,11.40634932,425.6190476,104.6190476,0.0,108.5450781,284.4285714,2.0,4.476190477,284.4285714,D,-0.25263194674047185,-1.7404953417027271,0.924294205052006,0.9200892960859136
Al Mubarraz,ASIA,49.56151684,25.43121486,62.46409391,26.602063,11.62878736,38.58069747,711.1116738,41.70764888,11.56786668,30.13978215,20.22072909,34.73358986,34.73358986,17.4246914,79.68248162,24.64779766,0.0,103.6670002,51.41534908,0.0,0.0,33.21910496,F,0.6113689732480652,-4.128727245793218,0.7862568807339444,0.7746494229663742
Al Mukalla,ASIA,49.12873563,14.55488506,28.99999998,27.15948282,7.201149415,45.94687889,252.2045367,34.06551743,18.39310363,15.67241379,25.83275861,27.73505744,29.88390791,23.91379317,27.89655173,6.103448276,0.0,61.20315749,14.13793104,2.931034483,7.586206896,5.413793104,F,1.1761762842959584,-2.6604486600034543,0.7862568807339444,0.7729895597488592
Al Musayyib,ASIA,44.28844697,32.78617424,44.0,23.26922347,14.06685597,35.94091762,947.6615226,43.40454587,4.265909141,39.13863694,12.93030299,34.40606074,34.40606074,11.34734845,123.5,24.65909091,0.0,91.4783646,68.45454545,0.0,0.0,68.45454545,F,-0.4759050790850799,-4.096671590762072,0.7862568807339444,0.7675750043450804
Al Qamishli,ASIA,41.2364101,37.04685172,30.87418403,19.14582199,12.9756621,33.47297275,961.3159147,40.84239537,2.078699383,38.76369681,8.035923685,30.67439346,30.97116435,7.559502726,432.8596198,74.00168085,0.0,82.61272972,211.9419141,1.177422419,3.0,211.7926638,D,-0.8574885219996832,-2.9135581437570632,0.924294205052006,0.917286135888953
Al Qunaytirah,ASIA,35.81666667,33.125,8.999999993,15.76064809,11.8898148,40.35000865,684.9038832,31.38888846,1.922222204,29.46666654,7.083333386,23.48518541,23.48518541,7.083333386,718.0,172.3333333,0.0,108.6314807,465.5555556,1.0,1.0,465.5555556,D,-0.5167694229277022,-1.3146014695306083,0.924294205052006,0.9180502316466982
Al-Qatif,ASIA,50.00248772,26.52673601,74.12223642,26.19810907,11.36888825,37.59278662,726.5227959,41.43850255,11.19922912,30.23927341,17.77769488,33.29475616,34.54022457,16.8049038,79.24578389,20.06745614,0.0,104.1313177,54.26580475,0.0,0.0,40.27025654,F,0.4282958507572424,-4.004167626206981,0.7862568807339444,0.7703499012316898
Alagoinhas,SOUTH AMERICA,-38.43333333,-12.1280303,22.0,23.81515156,8.543181766,66.67318205,154.6532877,30.23181811,17.41818151,12.81363661,23.53636369,23.69393921,25.37121227,21.74393949,1281.409091,182.0454545,61.81818182,36.91918044,492.4090909,213.7272727,266.6818182,375.9545454,G,2.7523946534191825,1.26925332529596,0.9862783810463968,0.9548445466212445
Alajuela,SOUTH AMERICA,-84.22418963,9.993235754,176.4001031,22.18194082,10.3774487,81.13026879,62.0022475,29.1935469,16.40153779,12.79200911,21.80975416,22.2641703,23.09122627,21.56353486,2539.145667,436.9762537,18.00344597,73.63276699,1161.891768,79.83495474,447.9072,673.923303,I,4.399144180912062,1.545506097051598,0.7556818181818179,0.732695754786219
Alamogordo,NORTH AMERICA,-105.9528571,32.91071429,35.0,16.04011909,16.42023817,45.02860533,783.0359427,34.35428576,-2.108571404,36.46285727,24.5147619,11.83476184,25.67238088,6.484761906,260.4,50.4,6.685714286,64.97936957,132.2285714,26.85714286,116.3714286,42.02857143,D,-1.3535634989224203,-2.549017915018979,0.924294205052006,0.9173264011805177
Alapayevsk,ASIA,61.68867925,57.85471698,53.00000001,2.099842782,9.236163553,20.51503444,1234.23204,24.79999999,-20.22075462,45.02075447,17.63113209,-10.91132078,17.63113209,-12.94088049,503.0754717,87.56603774,14.60377359,56.47139639,229.7735849,55.24528302,229.7735849,64.79245283,A,-4.5768804293701315,0.6649002104907673,0.9987781731909829,0.9877410036377204
Alatyr,EUROPE,46.575,54.84494949,33.00000001,4.244696978,8.472727255,22.12716311,1135.078536,24.30000005,-13.99090906,38.29090928,17.88737366,-8.287373832,17.88737366,-9.727777799,501.7575758,66.75757576,20.87878788,37.1421184,189.3333333,70.0,189.3333333,79.87878788,A,-4.054395580454576,0.9349866473226142,0.9987781731909829,0.9881117145947342
Alayat Samail,ASIA,57.96583333,23.30333333,9.999999999,26.54833317,11.09166651,43.17458611,529.3591492,39.10999985,13.41999989,25.68999996,23.56333351,26.7616663,32.5800003,19.63333302,179.1,30.8,4.0,57.25033684,77.80000001,15.5,37.9,57.5,F,0.7822710185666325,-3.1132861281310835,0.7862568807339444,0.7530248467486501
Albacete,EUROPE,-1.878571429,38.99806548,55.99999999,14.35944937,13.02217272,39.22539977,716.7701569,33.39642879,0.198214289,33.19821405,16.40535733,23.54017861,23.71309509,6.260416721,375.5357143,47.91071429,11.78571429,36.28148324,128.6964286,53.23214285,57.89285714,87.08928572,D,-1.4114731758442005,-1.472940352704931,0.924294205052006,0.9183652559473042
Albany1,NORTH AMERICA,-84.17228464,31.59321161,178.0,19.02448496,13.40589892,43.5174768,676.6189198,33.74269693,2.937078663,30.80561838,11.81086145,19.82116103,27.00617964,10.38417609,1291.41573,147.0449438,58.90449438,24.60248192,400.5898876,229.0168539,373.0955056,363.9325843,E,0.3564965658609584,0.9943204600157491,0.7493412384716736,0.7401853472942077
Albany2,NORTH AMERICA,-73.75775353,42.71180817,452.1555382,8.947648703,11.71699592,29.71884135,1004.960555,28.75615408,-10.67025414,39.42640812,20.44830955,-3.888881902,21.03135115,-3.888881902,972.2033255,96.67581292,55.32356659,16.15765808,285.8242215,188.373062,285.6296735,188.373062,B,-2.5324501258107803,1.513796956052606,0.4542760180995479,0.5260447681216442
Albany3,NORTH AMERICA,-123.0950913,44.63424658,73.0,11.58213476,11.92066206,44.15371464,543.1251831,28.11232867,1.113698657,26.99862961,5.627168962,18.36712333,18.55844743,5.27123284,1091.383562,185.6986301,14.7260274,66.77576802,521.9452055,72.02739726,72.36986301,484.630137,C,-0.7485336264674086,0.44430497804206875,0.5109770114942525,0.5372686627832662
Albany4,AUSTRALIA,117.8714744,-35.00544872,25.99999999,15.3703526,9.011217961,55.07688816,286.3605511,24.0999998,7.738461476,16.36153823,12.01538464,18.64230772,18.96730768,12.01538464,878.8076923,137.6538462,22.80769231,56.40577962,373.9230769,74.69230769,86.0,373.9230769,C,0.09912906124569185,0.6650205277569868,0.5109770114942525,0.5367970797993639
Albert Lea,NORTH AMERICA,-93.37119048,43.65571429,35.0,7.07940464,11.11690467,25.14957008,1197.969053,28.34857101,-15.85428562,44.20285623,21.11333302,-8.533333315,21.11333302,-8.533333315,791.0571429,108.1428571,17.08571429,51.0093714,317.2571429,63.08571429,317.2571429,63.08571429,A,-3.40808683696085,0.25572147031496545,0.9987781731909829,0.9890246846833425
Ambon,MELANESIA,128.1904762,-3.681845238,27.99999994,26.4688987,7.146726097,77.38234029,88.19296646,31.28571442,22.04999985,9.235714572,25.6964285,26.8035715,27.28035716,25.22440427,2704.0,408.8571428,116.3571429,41.73272977,1087.071429,432.9285714,499.2142857,1056.857143,J,5.935967139884075,4.790680556992476,0.8980272108843527,0.9106689662873475
Colombo,ASIA,80.2166997,7.018877877,7314.999998,26.52560036,7.179794928,66.34189643,71.1152279,31.87401227,21.04169517,10.8323171,26.19383913,26.23379809,27.43326269,25.6272568,2587.417772,383.4442925,85.94559125,46.36940506,946.8911825,336.0244703,729.5759398,606.980041,J,5.294996386359521,3.5653545468871184,0.8980272108843527,0.910882833682952
Albuquerque,NORTH AMERICA,-106.6345206,35.14115143,744.0,13.40330982,16.52344309,42.25757918,856.5855806,33.78615594,-5.305510777,39.09166665,23.21503138,3.714247317,24.18566305,3.077464163,258.6451613,47.15725806,11.66129032,50.94049113,115.5497312,37.64112903,100.1801075,37.68010753,D,-2.1184822148327536,-2.0731423215284766,0.924294205052006,0.9165677463258227
Albury,AUSTRALIA,146.9219388,-36.06088435,49.0,15.40969385,12.38129244,45.15207368,559.6645769,30.73673466,3.31632655,27.42040829,9.592857127,20.14353768,22.42721102,8.645238117,713.5510204,81.20408163,37.53061224,23.3305441,232.0,133.3673469,138.244898,224.3265306,C,-0.7986690850851478,0.17330105716978145,0.5109770114942525,0.5354892493745655
Aldama,NORTH AMERICA,-98.07916667,22.925,5.999999999,23.83749994,10.90555557,51.9313577,384.0678864,32.78333282,11.78333346,21.0,27.29444377,22.22500038,27.68611177,18.49444453,915.6666667,174.6666667,13.83333333,84.11381149,484.1666667,55.66666667,466.1666667,69.33333333,G,1.865832788543322,-1.237501122200281,0.9862783810463968,0.9735340762933997
Aldan,ASIA,125.3768817,58.61854839,31.0,-5.763978497,10.24408605,19.11604401,1617.016865,22.38064507,-31.2064516,53.58709655,14.33655902,-22.21989244,14.33655902,-25.30698924,650.0,96.61290323,21.5483871,52.99683688,276.8064516,71.03225806,276.8064516,78.25806451,A,-6.354799727199383,1.5979554523033428,0.9987781731909829,0.9881972239332963
Aleksandrovsk,ASIA,142.1550926,50.90092593,17.99999998,0.693518552,8.186110973,19.69901922,1205.765611,20.08888923,-21.46666654,41.55555534,11.08888907,-7.675925944,14.65185202,-14.82129611,643.9444444,95.77777778,26.66666667,46.19500605,274.5,85.22222222,239.3333333,118.5555556,A,-4.837210236162256,1.8674980161467878,0.9987781731909829,0.9877306045052097
Alekseyevka,EUROPE,38.68385417,50.63463542,32.0,6.971484333,9.403906316,25.07085764,1056.233925,26.42187476,-11.08750024,37.50937486,19.46302074,0.581250021,19.46302074,-6.112500116,536.84375,63.0,29.53125,22.66323119,174.84375,99.53125,174.84375,118.4375,B,-3.311497113586819,0.8153392825405295,0.4542760180995479,0.4234936720911104
Aleksin,EUROPE,37.06145833,54.51279762,56.0,5.093824395,8.276934556,23.85738615,988.3277501,23.31428579,-11.37857139,34.6928572,17.01488107,-3.733630965,17.01488107,-7.185416622,604.0,83.0,29.42857143,33.12815121,222.9821429,96.03571429,222.9821429,111.9285714,B,-3.505105580653242,1.393974031819594,0.4542760180995479,0.4295506086783502
Amderma,EUROPE,61.65833333,69.76666667,0.999999994,-6.675000191,6.616666794,19.1233139,1001.159546,11.0,-23.60000038,34.59999847,5.966666699,-10.36666679,5.966666699,-18.20000076,409.0,46.0,19.0,28.15048027,137.0,64.00000001,137.0,95.0,B,-6.238461051386642,2.9214469407444073,0.4542760180995479,0.42184804003300513
Armidale,AUSTRALIA,151.6571429,-30.50625,28.00000001,13.55758933,12.90029754,49.33185441,497.9384689,26.63214316,0.482142864,26.1500003,18.56964295,7.147023848,19.48988111,7.147023848,777.0357143,120.75,38.5,39.95290156,302.8571428,123.1071429,301.9642857,123.1071429,E,-0.8618213323666899,0.5211301585964858,0.7493412384716736,0.7373401365693368
Aleppo,ASIA,37.16033792,36.21317297,291.0,17.50884879,12.28522332,36.27709638,856.9714634,35.50996551,1.655326452,33.85463886,6.867926688,27.60234814,27.62308126,6.867926688,311.467354,57.28178694,0.0,81.64331815,160.3780069,1.975945017,2.12371134,160.3780069,D,-1.2606751357869246,-2.4025794607041084,0.924294205052006,0.915493849542531
Alexandria1,NORTH AMERICA,-92.45273632,31.31511194,134.0,19.23050379,12.19807208,39.9191642,703.1043027,33.84477598,3.288805992,30.55597022,11.2838308,27.03320888,27.59303492,10.2876866,1544.029851,163.0373134,104.9925373,14.15372355,450.6119403,321.0373134,338.238806,434.2686567,E,0.8077628596276423,2.274936285657589,0.7493412384716736,0.7385694563958737
Alexandria2,NORTH AMERICA,-77.26906908,38.8781995,1414.1727,13.28840658,11.82987922,33.61079372,877.1427657,31.07649199,-4.116399656,35.19289167,22.17242265,2.276704241,23.95777397,2.276704241,1029.251946,101.021614,68.59521479,10.87323187,286.1399999,223.7770292,279.8631284,223.7770292,E,-1.3357295954615398,1.4227815760367246,0.7493412384716736,0.7395188976950078
Ararangua,SOUTH AMERICA,-49.49791667,-28.93395833,40.0,19.35916677,9.932916403,51.17442951,339.1626251,28.54750018,9.137500167,19.41000037,23.47625031,15.84916706,23.47625031,15.18416691,1315.575,151.525,81.725,21.2405304,417.35,259.95,417.35,280.5,E,1.345039762243585,2.11673866530861,0.7493412384716736,0.7376381221451581
Alexandria3,AFRICA,30.0163482,31.1952937,470.9999999,20.73950813,9.440622787,43.13905049,487.2571442,31.16284488,9.290233596,21.87261132,16.39791229,26.14971682,26.48050234,14.73517338,164.8428875,45.71549894,0.0,114.5547371,115.029724,0.0,0.101910828,111.3227176,D,-0.037716542171948225,-2.4842302999742674,0.924294205052006,0.9175486631384606
Alexandroupoli,EUROPE,25.88621795,40.85865385,25.99999996,14.16330117,8.754807582,30.9601224,724.9859971,29.74999978,1.473076917,28.27692296,9.650640907,22.88205117,23.31282007,5.673076923,555.7307692,82.46153846,14.23076923,45.67807975,218.1538462,62.5,69.46153846,191.9615385,C,-1.3739555193150037,-0.3185280274452052,0.5109770114942525,0.5709629961029706
Aleysk,ASIA,82.76756757,52.49369369,37.0,2.804617205,11.27500011,24.35916091,1339.485371,26.89189148,-19.39459419,46.28648541,18.85540555,-12.0792792,18.85540555,-13.72342331,465.4054054,66.16216216,20.51351351,33.22232045,167.1081081,72.24324324,167.1081081,85.62162162,A,-4.673474955565321,0.4637532917745058,0.9987781731909829,0.9879694389072452
Algeciras,EUROPE,-5.452498722,36.15460668,53.25771278,17.91965892,7.727620491,39.26917734,426.5724922,28.93288823,9.25654695,19.67634125,14.06896231,23.14131626,23.58914548,13.13346118,772.1344155,145.746226,0.887340261,77.21725693,385.4605574,16.18776623,22.53058442,360.8813664,C,0.2659134304475346,-0.6341082580083941,0.4260344827586204,0.4747416421870585
Algha,ASIA,57.32166667,49.90916667,20.0,4.781041717,11.36458349,23.65159531,1391.187335,29.95499983,-18.09500036,48.04999962,18.74083357,-11.32500019,21.38249998,-12.45666671,299.55,31.2,19.2,14.38472614,86.3,62.85,82.15,70.55,A,-4.735655805270042,-0.042489286092489496,0.9987781731909829,0.9879959236243586
Algiers,AFRICA,3.090868938,36.66828015,1849.0,17.68726339,10.91526049,42.28762199,541.1350365,31.88523515,6.07587884,25.80935626,12.84745811,24.30538123,24.82556329,11.68592935,698.3488372,108.9113034,3.079502434,61.81215102,304.7982693,26.04542996,44.46241211,286.9021093,D,-0.18491249520250494,-1.1913117782317981,0.924294205052006,0.9181648110565116
Ali Bayramli,ASIA,48.92376543,39.94938272,27.0,15.04614198,8.63981473,27.08715566,865.3530115,32.55185163,0.655555553,31.89629583,8.777160327,25.78086408,25.86543196,4.848765426,293.9259259,37.14814815,4.444444445,41.93340937,100.0740741,29.22222222,29.44444445,81.2962963,C,-1.8288687470226517,-1.2269217662476923,0.4260344827586204,0.48778221098649727
Ali Sabih,AFRICA,42.70104167,11.15625,8.000000001,26.5432291,9.594791532,46.83245468,391.620018,37.2874999,16.79999971,20.48750019,30.5062499,23.85000062,31.22708344,21.78541684,188.625,34.75,4.875000001,51.97430707,79.75000001,28.25,58.37500001,33.125,F,1.2585618355265376,-2.747972895042752,0.7862568807339444,0.7747463661005766
Islamabad,ASIA,73.06610387,33.58677399,7640.031677,20.91178362,13.77418343,38.84117192,762.0536463,38.26345458,2.80871724,35.45473733,27.76353231,16.43328056,29.27033771,10.86315286,891.4729197,216.2325811,13.58845436,86.64435185,485.3788307,64.90499316,377.3435604,151.6501991,F,0.6970549803960594,-1.7838842719490344,0.7862568807339444,0.7686485870416822
Alicante,EUROPE,-0.494883041,38.39234893,171.0,17.67792393,11.48664719,43.89061699,542.4075453,31.61929809,5.445614026,26.173684,18.88313844,24.50185177,24.76530221,11.56871344,323.6666667,52.28070175,6.040935673,46.54194101,129.3859649,32.12280702,52.04093567,74.74269006,D,-0.575883441690029,-1.6733853144539874,0.924294205052006,0.9167751552743344
Alice,NORTH AMERICA,-98.07768817,27.75698925,31.0,22.11438167,12.58091404,43.4259614,598.9487758,35.74193561,6.770967853,28.97096831,26.59731225,15.311828,28.93440813,14.1752687,690.6774194,111.4516129,30.03225806,46.2817384,262.0,99.25806451,205.6774194,102.3225806,F,0.477362210775341,-1.3228710823361332,0.7862568807339444,0.7616482892444141
Alice Springs,AUSTRALIA,133.8711111,-23.69416667,30.0,21.25444431,14.62222214,46.47380549,619.1445048,36.15666656,4.693333165,31.46333256,27.55555541,15.27166675,28.28666611,13.18833338,326.8,48.43333333,8.933333334,50.64912389,137.2666667,33.06666667,134.5666667,37.83333333,F,-0.20527461035257083,-2.5659664882322826,0.7862568807339444,0.7614452934356957
Aligarh,ASIA,78.15303466,27.99065506,10141.30124,24.9940304,13.4234624,39.56193366,689.3883571,41.08885819,7.158991749,33.92986646,29.50409487,28.08523427,32.53727485,15.58715135,791.3061287,260.6075604,3.209045043,138.5167735,639.3602532,24.30107624,269.5208428,34.16571416,F,1.8156631712568878,-3.273119427471208,0.7862568807339444,0.6877580230660899
Alipur Duar,ASIA,89.80526869,26.39425849,6879.15195,24.8019203,9.714603479,47.26788517,383.4215507,32.17281219,11.61448329,20.55832885,28.19064821,19.84546756,28.36362067,19.21330541,3171.821757,751.3971612,3.209231475,106.8480191,1992.915086,25.87887431,1661.458993,27.22946363,H,5.785191827192473,2.1117846585813975,0.1471103896103899,0.39258147341426664
Aliwal North,AFRICA,26.70972222,-30.69305556,12.0,15.71909706,16.45208311,52.18750318,537.0258789,30.77499978,-0.75,31.52499978,21.3194445,8.941666603,21.89722236,8.697222233,560.6666667,96.41666667,13.08333333,57.21069463,247.25,50.41666667,225.3333333,50.75,D,-0.9226172964856528,-1.4714604941144007,0.924294205052006,0.9189356058918492
Allahabad,ASIA,81.70001008,25.33286691,9655.722996,25.71987036,12.62147263,38.74152228,615.9826863,41.32738617,8.749600105,32.57778603,28.90492739,29.18322103,32.54526129,17.27182761,973.9589786,316.0936067,3.121248287,140.9494227,785.217746,20.98532739,99.40296295,37.42100157,F,2.198230743284798,-3.2260922366250155,0.21374311926605535,0.5663550770648587
Allanmyo,ASIA,95.21359649,19.35701754,18.99999998,27.20350878,11.87192967,45.82832296,313.2454818,38.9526323,13.0473686,25.9052637,28.15175468,24.69561396,30.51842097,22.72456179,937.0526316,159.2631579,1.0,88.00216515,465.8947369,8.0,294.2631579,10.21052632,F,2.096917361938638,-2.651032591507744,0.21374311926605535,0.38609991022408846
Allappey,ASIA,76.52917263,9.532742814,2383.914574,27.45936891,7.445812971,66.65511847,101.1299338,33.21011082,22.04233958,11.16777124,26.71361273,27.16497138,29.04120901,26.67012343,3086.510278,641.5059899,16.73720519,83.14864686,1652.82671,97.14649579,514.217963,1083.421423,I,6.659447062424494,2.311197927739098,0.7556818181818179,0.7728781817053221
Allende,NORTH AMERICA,-100.8525641,28.34615385,13.0,20.44935887,15.86025642,49.53965407,633.8548678,36.29230763,4.27692318,32.01538497,24.9358968,13.0461541,27.87564087,12.26666649,445.8461538,95.07692308,9.999999999,66.01149632,190.3846154,40.30769231,131.9230769,43.0,F,-0.17109736395980665,-2.5857394432219647,0.7862568807339444,0.7715823097477325
Almetyevsk,EUROPE,52.315,54.90739583,80.0,3.963281235,9.023020816,21.83048799,1221.634045,25.37374999,-15.95749995,41.33124967,18.44395833,-4.181250035,18.44395833,-11.19916667,526.1875,66.575,25.5125,29.62079496,184.0,87.4875,184.0,99.275,A,-4.1262090103723414,0.9603209978489787,0.9987781731909829,0.9873995746721023
Almirante,SOUTH AMERICA,-82.40166667,9.303333333,4.999999995,25.7466671,7.490000248,81.59141083,50.18742371,30.12000046,20.93999977,9.180000687,25.77666664,25.30333366,26.25999985,25.02666626,2975.4,407.0,124.4,33.9325367,965.0000001,460.8,757.0000001,617.6,J,5.758086580941444,5.046107821126955,0.8980272108843527,0.9094214939240772
Ayr2,AUSTRALIA,147.4055556,-19.56597222,12.0,23.82048575,10.08958348,52.43555609,324.5376384,31.71666718,12.4749999,19.24166727,27.14722236,20.02638849,27.27499962,19.31944418,1597.416666,474.1666664,14.0,113.9959704,1081.249999,53.58333333,1009.749999,57.66666668,H,3.6563051240956708,0.20071273817197186,0.8463961038961035,0.8495772897144346
Allentown,NORTH AMERICA,-75.41198899,40.63535115,636.0,10.66686321,12.15372117,32.85727746,933.0025042,29.56603773,-7.421226402,36.98726414,19.69926626,-0.898427673,21.94921388,-1.060560796,1146.128931,114.245283,69.69968553,12.96468679,325.5188679,242.2106918,316.6871069,242.2374214,B,-1.8115761275807447,1.9292914349866812,0.5457239819004517,0.5775488193084518
Alliance,NORTH AMERICA,-102.8787037,42.10740741,18.0,8.889351951,15.56111108,36.48081228,982.6473796,31.31111103,-11.34444428,42.65555445,18.61018488,-2.830555558,21.40092585,-2.830555558,410.3888889,79.33333333,9.0,70.30364227,207.2222222,27.0,167.9444444,27.0,A,-3.031344466874856,-1.450483475544358,0.9987781731909829,0.9871837765158052
Almaty,ASIA,76.89856719,43.28183465,506.0,9.432476955,11.46897231,27.44711111,1110.7079,30.51284582,-11.27272726,41.78557308,11.08389329,18.22121215,22.70974968,-4.625658777,510.7806324,82.0256917,22.97035573,44.53379709,205.7233202,78.60869565,100.6620553,89.3972332,C,-2.9258996349785296,-0.3969201514285879,0.06298850574712636,0.05276098391201576
Almenara,SOUTH AMERICA,-40.69583333,-16.17222222,12.0,24.55208317,10.99305574,66.05695534,182.2546616,32.03333282,15.39166641,16.64166641,25.92499987,22.68611129,26.3458333,21.93888903,850.25,162.3333333,18.66666667,71.24150657,426.5,64.91666667,270.5833333,67.66666667,G,2.168725220859694,-1.246797233542294,0.9862783810463968,0.9737036285122842
Almeria,EUROPE,-2.446296296,36.86064815,53.99999997,17.77986106,10.79398146,41.38251771,550.6495452,32.04074051,5.959259289,26.0814814,15.10524691,24.72777759,25.00216039,11.56327163,230.1111111,31.88888889,1.759259259,51.60440424,89.96296297,14.64814815,17.27777778,78.62962963,D,-0.8065906280279466,-1.8546907171560623,0.924294205052006,0.917407952455434
Alor Setar,ASIA,100.3711854,6.112881455,284.0,27.67780213,8.886121031,74.7458779,61.3951837,34.10633808,22.21830992,11.88802816,27.21484732,27.45228853,28.51408465,27.0582159,2180.080986,329.5633803,38.31690141,50.52602556,861.7640845,179.9330986,447.0211267,488.3204225,I,4.849792969550078,1.1270691903579821,0.7556818181818179,0.7645246816241386
Alotau,MELANESIA,150.4416667,-10.3,2.999999996,26.03750038,6.813888868,70.48969269,100.9372737,31.20000013,21.53333346,9.666666666,25.71666654,26.49444389,27.16666667,24.71666654,2877.666666,314.3333332,155.3333332,19.11355146,904.6666662,583.3333331,683.9999997,734.0,J,5.552641952802951,5.895904929690323,0.8980272108843527,0.9091262085810204
Alpena,NORTH AMERICA,-83.45792683,45.06971545,41.0,6.624898387,10.74735772,28.12937778,996.8855129,26.39512216,-11.81219506,38.2073167,17.90162603,-5.795528505,18.66910576,-5.795528505,737.8780488,86.58536585,34.04878049,23.71309104,241.4390244,129.195122,230.804878,129.195122,B,-3.2432158479719684,1.1715400502046034,0.4542760180995479,0.42422035497360044
Alpine,NORTH AMERICA,-103.6653846,30.36474359,13.0,16.1903845,17.07820496,50.19593048,642.8214675,32.53846124,-1.484615381,34.02307686,22.96410267,9.525641075,24.04230734,8.182050998,426.4615385,82.38461538,9.0,76.18716724,226.6923077,32.92307692,197.9230769,37.92307692,D,-0.9909888195034303,-2.22017294311535,0.924294205052006,0.9173787212908323
Alta Gracia,SOUTH AMERICA,-64.42992424,-31.65151515,22.0,16.65018905,13.13295477,50.53762106,469.9316531,29.11363671,3.127272671,25.9863635,21.66136369,10.64242428,22.29393942,10.64242428,754.0909091,121.6363636,10.04545455,67.14956214,333.5454545,36.81818182,333.0,36.81818182,D,-0.26379818142118827,-0.9700662998719203,0.924294205052006,0.9170284726868789
Altagracia de Orituco,SOUTH AMERICA,-66.375,9.866176471,17.0,25.34191154,10.09656872,83.00015797,57.81579904,31.55294127,19.38823509,12.16470617,25.2333337,24.9019606,26.04411776,24.66176459,1067.647059,194.8235294,6.94117647,75.85596377,538.0588236,39.29411764,308.6470588,82.99999998,G,3.0573790001756853,-1.2114718136528473,0.9862783810463968,0.9722462059320404
Altamira,SOUTH AMERICA,-52.21428571,-3.194047619,7.000000001,26.30178561,10.00119019,80.84147208,62.41211973,33.04285649,20.67142923,12.37142726,25.64523779,27.10476167,27.12142863,25.57619013,2011.428571,371.2857143,38.0,72.52262878,979.7142857,124.5714286,150.8571428,944.2857143,I,4.865971392426325,0.9506034647665432,0.7556818181818179,0.7736046542215439
Altay,ASIA,88.12307796,47.85448732,13.00091561,4.182357043,12.25320733,24.95214271,1368.90594,28.66152077,-20.44616765,49.10768813,20.28588094,-10.93590938,20.28588094,-13.05770535,184.76926,29.23079054,6.923042431,37.28587713,67.07698223,24.46149187,67.07698223,33.23071307,A,-4.954862795635363,-0.6768532068775783,0.9987781731909829,0.9888085435107224
Alton,NORTH AMERICA,-90.13132184,38.90270115,145.0,12.42626439,11.26436783,29.30182656,994.9669981,31.23793109,-7.204137966,38.44206922,22.04839082,-0.468850584,24.24839086,-0.468850584,971.8413793,103.7241379,48.00689655,20.69029024,292.5862069,176.1103448,273.3724138,176.1103448,B,-1.8768565479288146,0.9151096449590018,0.5457239819004517,0.5709928107434751
Bac Giang,ASIA,106.1901118,21.19596087,1840.673624,23.51240328,6.567944433,34.16636655,477.004865,32.34806977,13.13295823,19.21511142,28.68779772,17.47937014,28.74011788,17.23521975,1597.426004,311.3454904,14.30083333,84.98686402,854.2316394,69.82529421,853.3564803,70.07122769,H,2.6878528834504034,0.43945391466697603,0.8463961038961035,0.8467226118396673
Altoona,NORTH AMERICA,-78.40729167,40.48779762,112.0,9.977753026,11.81011898,32.53403761,916.9831728,28.60535714,-7.694642748,36.29999988,18.9372024,-1.592410689,21.04732137,-1.592410689,983.9732143,100.2053571,63.1875,15.55694234,296.3660714,197.2946429,281.8392857,197.2946429,B,-2.1378170184760164,1.6385195712441436,0.5457239819004517,0.5765759413065634
Alvorada,SOUTH AMERICA,-49.125,-12.475,1.0,25.68333244,12.26666641,68.52886963,92.00627899,33.79999924,15.89999962,17.89999962,25.79999924,24.48333359,26.68333435,24.46666718,1646.0,294.0,3.0,85.30860901,831.0,14.0,414.0,34.0,G,3.340603768298748,-1.2906659889924066,0.9862783810463968,0.9733796372378855
Alwar,ASIA,76.87088919,27.57951761,1889.953245,25.27807552,14.0721886,40.50421975,701.6985784,41.56248111,6.821608546,34.74087244,29.75036807,22.20385254,32.87994828,15.60351779,646.0510263,225.4497451,3.083624691,144.8668855,539.7163714,17.41923386,233.3176435,23.71271519,F,1.4922815174443427,-3.637893416774928,0.7862568807339444,0.7794220978363163
Alxa Zuoqi,ASIA,105.6645833,38.83645833,8.000000001,7.917187572,13.80937493,30.90241027,1154.852493,29.13750029,-15.55000007,44.6875,19.83541656,-7.035416661,21.49375033,-7.035416661,204.875,50.12499999,1.374999998,91.36498356,120.875,5.499999996,118.625,5.499999996,A,-3.8436398907523865,-1.6643764002492596,0.9987781731909829,0.9886032381818715
Am Timan,AFRICA,20.28402778,11.03402778,12.0,27.62118069,15.83958308,61.67274157,219.9233424,39.79999924,14.11666695,25.68333213,26.39444431,25.79027843,30.8305556,25.44861126,820.6666666,233.3333333,0.0,120.5628808,571.0833333,0.0,90.16666666,2.166666666,F,2.5944677935672695,-3.7167409816500867,0.21374311926605535,0.6399744930899822
Amahai,MELANESIA,128.9166667,-3.329166667,1.999999979,25.9958334,7.633333445,77.89116287,76.97608948,31.29999924,21.5,9.799999237,25.29166603,26.60000038,26.60000038,24.85833359,2564.0,344.0,95.5,38.74379539,978.0,352.0,352.0,944.0,J,5.289231370674518,3.757829960507995,0.8980272108843527,0.9106376787265203
Amapa,SOUTH AMERICA,-50.79583333,2.054166667,4.000000001,26.88333368,7.599999428,71.69810486,83.19683647,33.20000076,22.60000038,10.60000038,26.29999924,28.03333282,28.03333282,25.93333435,2493.5,371.0,28.25000001,64.74709892,1060.25,110.25,110.25,992.5,I,5.13545476316833,1.312708888386195,0.7556818181818179,0.774237610207611
Amarillo,NORTH AMERICA,-101.8606618,35.19677288,204.0,13.94848856,15.42156859,40.22006831,864.9710221,33.00931379,-5.332352919,38.3416666,24.63488578,3.300000033,24.63488578,3.300000033,489.5833333,84.17647059,12.51470588,61.90038335,224.2941176,40.24509804,224.2941176,40.24509804,D,-1.7057558728199675,-1.690351325919172,0.924294205052006,0.9173869750447387
Amasya,ASIA,35.82291667,40.66111111,24.0,12.09027775,10.21388884,34.65184132,727.2528381,27.7249999,-1.749999987,29.47499983,9.264583379,20.46249978,20.80833355,2.964583366,452.6666667,57.41666666,9.166666667,39.50465886,149.9166667,47.04166667,69.45833334,141.375,C,-2.041694225042494,-0.39351356817955074,0.5109770114942525,0.574323400546277
Ambala,ASIA,76.9180231,30.29572887,2711.7969,23.53980003,12.78567961,39.07216183,696.5293584,38.98119757,6.257002596,32.72419521,28.73819746,26.28092073,31.08802068,14.12134039,951.8071508,279.5212264,5.404530225,121.7394197,700.7230753,48.90123761,332.9546527,88.43187974,F,1.737655563818903,-2.3965631387917923,0.21374311926605535,0.4952099691342688
Ambanja,AFRICA,48.44861111,-13.6625,6.000000001,26.19722239,10.13055547,71.34193421,134.5429586,32.20000076,18.0,14.20000076,27.125,24.27222188,27.39444415,24.27222188,2124.166667,523.0,23.66666667,99.51565043,1300.666667,88.66666666,877.5,88.66666666,H,5.040876298760017,0.6930440988968907,0.8463961038961035,0.7553613002574219
Ambato,SOUTH AMERICA,-78.6041167,-1.248849739,139.7942212,13.92499468,11.70265906,82.22436158,70.67812738,21.38385564,7.150725801,14.23312979,14.22054838,13.22325756,14.53535658,12.88228022,570.6096247,66.82214706,32.2357037,22.44480918,182.9405264,107.8038236,126.7322452,120.9374137,C,-0.28615650430463885,0.7569795841935533,0.5109770114942525,0.528844942262383
Americana,SOUTH AMERICA,-47.32811955,-22.77416456,382.9709453,20.58917132,10.97607854,62.71010482,243.8409972,28.10733761,10.60415179,17.50318582,23.10608279,17.34265636,23.14864133,17.34265636,1251.237514,234.5675013,25.05364967,71.05370523,630.5242846,91.35543268,574.2909818,91.35543268,G,1.9220557594226426,0.2667010523361532,0.9862783810463968,0.9730069043213836
Ames,NORTH AMERICA,-93.64596774,42.02983871,62.0,9.053091403,11.81236572,27.56847255,1134.781274,29.73387091,-13.11451621,42.84838756,20.78225837,-5.761290373,22.34865601,-5.761290373,850.1129032,128.3709677,19.98387097,51.19887044,338.5322581,72.85483871,337.8709677,72.85483871,A,-2.8358265717571793,0.11633573207937137,0.9987781731909829,0.9876594392634891
Amherst,NORTH AMERICA,-64.21197917,45.83072917,16.0,5.797135443,9.809895873,26.92722249,952.243679,23.96874988,-12.46249986,36.43125033,2.342708287,10.11354172,17.17708385,-6.18645823,1164.6875,117.3125,85.75,10.75548959,333.0625,267.5,268.625,311.4375,B,-2.8834309040691166,3.443055913011268,0.5457239819004517,0.5741791567571753
Amiens,EUROPE,2.296560847,49.89398148,126.0,10.47321429,7.885978805,35.6004464,531.5485883,23.21507929,1.064285731,22.15079333,7.560317456,6.634391558,17.11693126,4.207275165,663.2857143,64.74603175,44.30952381,12.56852693,186.3492064,138.7619048,166.515873,161.9285714,B,-1.9979708616628602,1.8372612473921994,0.5457239819004517,0.5736918110972665
Amravati,ASIA,77.74899818,20.93278689,183.0,27.35054645,12.51511838,44.60629106,417.4371938,42.67213117,14.61693989,28.05519131,26.77140247,28.93387974,33.2459016,22.584153,820.1748634,232.0601093,6.196721311,122.8504885,585.0765027,25.27868852,147.9125683,30.0273224,F,2.4972622111158347,-3.3511924972505,0.21374311926605535,0.6082137888782496
Amritsar,ASIA,75.41465001,31.54294583,29322.12817,23.17190448,13.10246112,38.31600483,735.2578625,39.4236534,5.230601412,34.19305196,29.04440743,18.92043249,31.18384331,13.3230916,831.3229076,250.3830906,6.333306978,119.9092086,590.2874942,45.77406863,311.2950255,93.30420988,F,1.2706940379986784,-2.5246185610367258,0.7862568807339444,0.7242042987173919
Amman,ASIA,35.93147282,31.96193182,748.0,16.94956553,11.12430927,40.11531066,663.1760117,31.22232614,3.502406421,27.7199197,8.463458103,24.31504007,24.33086006,8.463458103,306.9973262,69.3355615,0.0,109.1168907,195.6697861,0.0,0.0,195.6697861,D,-0.9795351727251882,-2.046677464555665,0.924294205052006,0.9161432857454155
Ammochostos,ASIA,33.92045455,35.12929293,33.0,19.33863657,11.18585861,40.94047859,619.7059881,33.58787872,6.272727257,27.31515139,12.05151512,26.73989886,26.92070707,12.050505,402.3939394,108.5757576,0.0,99.19790325,237.3030303,3.606060609,4.666666669,218.6060607,D,-0.2033442842519584,-2.23183930390825,0.924294205052006,0.9176358827942833
Amol,ASIA,52.34933036,36.47782738,112.0,17.19252229,8.627008779,30.72260916,742.0783871,31.35892865,3.27946426,28.07946421,13.85282736,23.92842267,26.17961318,8.268005946,871.0,151.9553571,22.92857143,59.5827978,394.9196429,75.94642857,98.58928571,276.4375,C,-0.3124573896988898,-0.23195518174338864,0.5109770114942525,0.5608498240610347
Amos,NORTH AMERICA,-78.11898148,48.58009259,18.0,1.013657388,11.97361109,25.09300094,1270.939562,23.65000004,-24.06666692,47.71666675,14.53888872,-14.29629623,15.71574068,-15.50092607,935.2777778,109.9444444,38.94444444,31.75996971,326.2222222,146.0,320.5,151.0555556,A,-4.675657583250311,1.9740766796108002,0.9987781731909829,0.9885855282629633
Andoany,AFRICA,48.26203704,-13.39074074,9.0,26.06574059,9.205555598,69.21490055,136.799335,31.71111107,18.41111098,13.30000008,27.00555526,24.34629631,27.29814847,24.09444449,2175.444444,521.2222222,33.22222222,94.79015859,1297.888889,102.5555556,878.0,107.3333333,H,5.065739512117302,1.105863023521837,0.8463961038961035,0.6467618665667006
Ararat,AUSTRALIA,142.9227778,-37.28,15.0,12.97555555,11.54111118,48.5725858,426.9956095,27.05333354,3.293333308,23.76000074,8.502222188,18.30222219,18.30444438,7.85888888,641.2000001,71.53333335,33.2,27.21456108,209.2666667,107.4,108.0666667,202.5333334,C,-1.1394318577289662,0.4731366390260957,0.5109770114942525,0.5292635185909396
Bac Lieu,ASIA,105.7588652,9.431919626,1256.133746,27.59723943,6.648965827,61.19699589,91.92975735,33.37231501,22.50465911,10.8676559,27.65071362,27.08946568,28.72511729,26.43543911,1934.493355,323.0287594,2.925621399,78.11356354,897.5896218,30.2673034,526.1317786,143.5719692,H,4.304819200366243,-0.22468343497674653,0.8463961038961035,0.8469553324072269
Amsterdam,EUROPE,4.863429994,52.3559754,569.0,9.767794395,7.110193329,33.49331994,526.8804589,21.59982429,0.375395437,21.22442886,10.50014646,5.834534277,16.26713531,3.495782051,837.6326889,93.92442882,45.58172232,22.3177315,269.2811951,160.7381371,202.2741652,203.7170474,B,-1.7866494092187442,2.2917924848625244,0.5457239819004517,0.5749395517732159
Amursk,ASIA,136.8942029,50.23695652,23.0,-0.462318828,11.79927532,20.94981525,1653.423616,25.64782615,-30.67391296,56.3217392,16.73985506,-19.0355072,18.54275372,-22.34347824,584.9130435,116.7391304,9.47826087,76.74004231,308.173913,35.73913044,297.0869565,36.04347826,A,-5.699893300051529,0.2905158561734858,0.9987781731909829,0.9880051812779846
An Najaf,ASIA,44.37954545,32.01780303,176.0,24.05684185,13.8703125,35.22065256,964.255343,44.18295466,4.800000061,39.38295447,11.85871219,35.35946991,35.35946991,11.85104173,76.02840909,18.6875,0.0,82.85986111,40.36363636,0.0,0.0,40.36363636,F,-0.48690091226675813,-4.165131365005847,0.7862568807339444,0.7643334023836508
An Nasiriyah,ASIA,46.24630952,31.05666667,70.0,24.11184515,14.52940478,39.40674259,875.9315552,43.03857139,6.171428558,36.86714281,14.08119046,34.07071342,34.07071342,12.83785707,105.2857143,22.55714286,0.0,87.17647531,58.87142857,0.0,0.0,58.64285714,F,-0.24365115403160056,-4.141568461209558,0.7862568807339444,0.7571128246132852
Anaco,SOUTH AMERICA,-64.46846405,9.438235294,51.0,26.11478761,11.54820253,82.85842731,46.47417974,33.01568604,19.07843156,13.93725448,25.9091504,26.00588253,26.66111116,25.59869291,1020.0,183.1764706,9.431372548,72.90863793,507.8431372,46.72549019,115.3529412,91.35294117,G,2.969633141681203,-1.7121981696806157,0.9862783810463968,0.9738284648678385
Dondo2,AFRICA,14.41944444,-9.680555556,2.999999999,25.34166654,8.688889185,60.6200943,196.3493093,31.43333308,17.10000038,14.3333327,27.17222214,22.56666629,27.17222214,22.56666629,690.6666667,177.0,0.0,110.0434494,419.3333333,1.0,419.3333333,1.000000002,G,2.353235814300617,-1.8245481623503883,0.9862783810463968,0.9734250004908297
Anapolis,SOUTH AMERICA,-48.95184478,-16.33008906,131.0,22.03110685,10.13905853,68.34230315,102.3108165,29.02671772,14.19083968,14.83587804,22.24567424,20.82977093,23.03486009,20.54834609,1667.473282,282.2290076,11.1221374,77.27892484,803.8320611,38.02290076,467.6259542,62.03053435,G,2.7065050388397434,-0.0353622282154183,0.9862783810463968,0.9731568448099678
Anatuya,SOUTH AMERICA,-62.83809524,-28.45357143,14.0,20.48482132,13.85892875,50.21350997,486.6768428,33.70000076,6.099999905,27.60000038,25.3464286,14.27500016,26.24642863,14.27500016,719.7142857,114.7857143,9.642857142,70.53363473,339.7142857,35.5,331.7142857,35.5,F,0.4581998718940387,-1.7838673669574237,0.7862568807339444,0.7641340431682329
Anbyon,ASIA,127.5178571,39.04880952,7.0,10.96071434,9.257142885,26.97704043,937.9034162,26.62857192,-7.685714245,34.31428528,21.6404765,-1.104761907,21.86666707,-1.104761907,1047.714286,253.2857143,17.28571429,92.91384561,634.0,59.71428572,591.2857143,59.71428572,B,-1.3145357050359285,0.6693565626308265,0.4542760180995479,0.4274229102120081
Anchorage,NORTH AMERICA,-149.8498538,61.1729741,399.0,2.486027568,7.836549747,24.66471924,909.7559928,19.12155388,-12.66240605,31.7839599,8.106349242,5.497117809,13.87251464,-8.158395993,877.9423559,136.8446115,40.27318296,40.60587456,348.197995,129.3784461,211.5363409,216.2807018,B,-3.4164439818843695,2.500091965523378,0.4542760180995479,0.4768396513952176
Ancona,EUROPE,13.51302682,43.54741379,87.00000002,13.84449236,9.184195398,34.34262806,658.8882545,28.50919539,1.790804593,26.71839085,14.82777774,6.761111089,22.1268199,6.075862057,704.954023,80.24137931,42.82758621,20.06319561,224.6321839,145.1149425,167.4712644,150.5402299,C,-1.3611880003871997,0.9022606230363367,0.5109770114942525,0.5333875078946582
Ancud,SOUTH AMERICA,-73.81666667,-41.87604167,16.0,10.59973955,6.3671875,49.07283402,238.7789545,17.94999981,4.974999934,12.97499985,8.358333409,13.56354159,13.57812476,7.827083379,2517.875,357.6875,107.0625,46.10760784,1032.875,352.25,353.25,987.75,J,1.6656747064545359,6.350958100023693,0.8980272108843527,0.9123336009450418
Anda,ASIA,125.2589372,46.43218599,138.0,4.127022942,11.5216788,22.08197247,1508.831819,28.05942036,-24.10507253,52.16449312,21.85990338,-15.42149757,21.85990338,-15.42149757,466.6376812,148.4927536,2.036231884,117.0826509,323.1811594,9.028985507,323.1811594,9.028985507,A,-4.410743517806415,-0.8248328256334926,0.9987781731909829,0.9882590706038045
Dalhart,NORTH AMERICA,-102.5208333,36.06458333,12.0,12.72013887,16.03472201,40.8706096,870.2842458,32.125,-7.10833323,39.23333263,23.53194475,2.052777718,23.53194475,2.052777718,443.8333333,74.25,9.0,68.89279175,209.9166667,30.5,209.9166667,30.5,D,-2.043099897117674,-1.809425279488955,0.924294205052006,0.9168819740476951
Anderson,NORTH AMERICA,-82.66973333,34.52346667,125.0,16.04733334,13.07946661,39.36173969,764.8481807,32.53839987,-0.690400001,33.22879984,8.007333393,20.12786659,25.35959988,6.440266674,1305.136,136.904,91.648,12.55756007,381.84,289.688,309.16,355.896,E,-0.3310617480062245,2.00504914053059,0.7493412384716736,0.7385817995787628
Andong,ASIA,128.7245935,36.57052846,41.0,11.69349596,11.64430888,31.00415067,983.4639491,29.28536569,-8.27073174,37.55609754,22.84512204,-0.889024384,23.39390257,-0.889024384,1125.658537,234.4146341,25.70731707,76.25477693,594.1463415,91.73170731,585.8536585,91.73170731,E,-1.2223951270630047,0.5198284637120126,0.055573122529644234,0.15750587565989452
Andorra,EUROPE,1.531306306,42.5222973,36.99999999,7.731756724,9.655405379,36.61904557,608.7324631,22.66486477,-3.702702704,26.36756753,8.401801807,4.159909906,15.60540542,0.903153155,983.6756758,109.8648649,61.94594595,17.4224386,286.8918919,205.0,225.5405406,219.3783784,B,-2.115048042342856,2.6182042164917836,0.5457239819004517,0.5731365443882999
Andradina,SOUTH AMERICA,-51.38071429,-20.89761905,35.0,22.87000002,11.90238105,63.47484,253.4582781,30.70285737,11.95142847,18.75142893,25.37619068,19.54571424,25.37619068,19.41047619,1203.342857,210.2,21.45714286,62.79652176,556.8571428,84.94285714,556.8571428,129.4,G,2.1953209852562576,-0.28189907021059524,0.9862783810463968,0.9743817704366261
Androka,AFRICA,44.075,-25.025,1.000000002,24.72083282,13.90833282,63.79969406,317.4146728,34.79999923,13.0,21.79999923,28.21666717,21.35000038,28.23333359,20.61666679,437.0,89.99999999,7.0,90.00308228,263.0,26.0,229.0,35.0,F,1.523349262998135,-2.7690536724426273,0.7862568807339444,0.7729331102873422
Angangxi,ASIA,123.8117284,47.16080247,26.99999999,4.016666722,11.65864185,22.5231834,1506.098809,27.65555587,-24.10740746,51.76296361,21.53518535,-15.62592584,21.53518535,-15.62592584,415.037037,135.4074074,1.407407407,120.0897172,293.3333333,6.407407407,293.3333333,6.407407407,A,-4.5282641529486085,-0.9247235690501278,0.9987781731909829,0.9885842032820832
Angarsk,ASIA,103.8908379,52.5575046,181.0,0.512638113,11.29396865,22.94626125,1398.39014,24.75745848,-24.46298337,49.2204417,17.09392265,-14.21325971,17.09392265,-17.55644573,429.9392265,102.4917127,7.331491712,88.85070152,254.2320442,27.33149171,254.2320442,32.77348066,A,-5.1057822482398665,0.03225558462896852,0.9987781731909829,0.9880550718509922
Angeles,MALAY ARCHIPELAGO,120.6617817,15.05884785,1607.477916,27.45761974,8.617477118,64.59426811,109.8477822,34.5614741,21.23137418,13.33009992,27.42893678,26.63627676,28.90783556,26.09691923,2321.732399,535.4138561,7.696322754,97.12551358,1377.962029,36.19977235,554.7583944,61.33301259,H,5.201574632210156,-0.03376525976335733,0.8463961038961035,0.8303059727448031
Andijon,ASIA,72.21291978,40.73714241,1072.0,13.60324162,12.36501861,30.83839914,1036.843351,34.26473866,-5.829197757,40.09393644,8.584748117,23.79940915,25.82206164,0.162375635,232.6781716,31.04757463,3.525186567,50.1446929,88.42350746,14.58115672,19.9869403,80.43003731,C,-2.518340225183439,-1.8938385921619239,0.4260344827586204,0.41319033146275225
Andkhvoy,ASIA,65.09666667,36.93472222,60.00000001,16.78604174,14.32319441,34.05329418,1027.00491,39.54166667,-2.518333348,42.06000023,5.831944482,29.63333314,29.63333314,4.153333282,235.5,57.33333333,0.0,95.26696091,137.8,1.0,1.0,112.1166667,D,-1.6586131496824519,-3.1906545668318103,0.924294205052006,0.9183937607373405
Angers,EUROPE,-0.552008929,47.46595982,224.0,11.90040924,8.965625014,38.61989771,537.7098277,25.4000001,2.185714281,23.21428571,6.394642855,18.73668159,18.73668159,5.637127955,720.1964286,76.78571429,42.50892857,20.72326337,226.65625,131.5758929,131.5758929,215.8392857,C,-1.4285075829793537,1.3026282898596673,0.5109770114942525,0.5371049592286152
Angoche,AFRICA,39.92596154,-16.1974359,25.99999997,26.24102556,10.48782033,63.38038547,221.6220774,33.74230737,17.2038462,16.53846117,28.30512832,24.9589744,28.43589739,23.15192303,1032.461538,219.1923077,5.653846155,89.62733929,595.1923077,46.80769231,547.6923077,82.15384615,G,3.028261024919414,-1.3483497817001813,0.9862783810463968,0.974344421104527
Angol,SOUTH AMERICA,-72.7030303,-37.80113636,21.99999999,12.80814392,11.83068189,52.00305713,401.2541878,26.45454563,3.704545454,22.75,8.65757565,17.99696957,18.01818171,8.130302993,1113.772727,221.1818182,15.68181818,83.5643366,621.0909091,64.13636364,64.13636364,585.5,C,0.022216948766092075,0.505518369379369,0.5109770114942525,0.5381573559205302
Angra do Heroismo,EUROPE,-27.225,38.6625,5.99999999,18.99722163,5.827777704,41.23491796,294.1237895,27.0,12.86666664,14.13333336,16.99444453,22.23055585,23.07777754,15.84722233,1094.5,135.0,38.0,37.01000405,397.1666667,143.1666667,187.5,335.8333333,E,1.000200790782725,1.2938748353233043,0.7493412384716736,0.7407534503441151
Angren,ASIA,70.08497024,41.01837798,112.0,12.39125747,12.68712796,33.01082179,944.7364911,33.33482153,-5.10089288,38.43571435,6.51309526,22.66741065,23.9364584,0.48839286,485.3392857,72.74107142,5.026785713,56.41631947,191.2232143,25.46428571,32.88392857,161.3571428,C,-2.2521628176805306,-1.4089862586978414,0.4260344827586204,0.4108993147584107
Anna Regina,SOUTH AMERICA,-58.48666667,7.273333333,5.000000004,27.11916656,6.568333435,77.82610016,50.82532578,31.83999939,23.39999962,8.439999771,26.92999992,26.86666679,27.81333351,26.61666679,1849.400001,272.8,71.60000003,44.77151564,685.2000002,263.0000002,349.4000001,317.0000001,J,4.471914571565478,1.8061954721642095,0.8980272108843527,0.9113104090280792
Annaba,AFRICA,7.741973415,36.849591,163.0,17.87438645,10.02515333,40.6629597,542.7611195,31.90429441,7.263803701,24.64049083,12.27576688,24.44447852,24.9673825,11.85705524,835.4478528,144.9815951,4.18404908,68.85697581,393.8957055,32.29447853,51.59509203,393.7177914,C,0.1567581970818023,-0.8477261664165109,0.4260344827586204,0.408962340285983
Arauca,SOUTH AMERICA,-70.75972222,7.079861111,12.0,27.05277729,9.276388486,72.85181491,86.4382356,34.43333435,21.70000076,12.73333359,26.08472204,27.72500054,28.21388944,25.99166679,2395.999999,511.1666664,11.0,81.75375237,1253.916666,65.41666665,244.6666666,1237.666666,I,5.715879174700179,1.1012363662167424,0.7556818181818179,0.772792671641263
Dali1,ASIA,109.8924828,34.74729935,1883.457466,13.74155353,11.2607418,30.11683001,979.5579871,31.54712209,-5.835796858,37.38291882,23.98994481,1.215995916,25.5484355,1.215995916,580.3391211,104.8946053,5.840620248,72.18938967,292.8024125,21.14523388,254.8306869,21.14523388,A,-1.8618695744140177,-1.2354777338268443,0.9987781731909829,0.6795960439012148
Luoyang,ASIA,112.4394706,34.54508733,7826.836115,14.34441772,10.78013016,29.93471188,944.5067922,31.34496385,-4.664987734,36.00995162,24.03373892,2.185682472,25.68285618,2.185682472,631.9309676,146.0030924,6.103782542,81.0171837,341.5072903,23.84465896,317.5341334,23.84465896,E,-1.491605730199832,-1.1042312555697287,0.05546772068511196,0.06905798831008765
Ankang,ASIA,108.7868961,32.7889996,828.0,15.02177938,9.062661009,29.03311836,827.2371984,30.41340577,-0.796859907,31.21026573,24.02568437,4.53967392,25.08379631,4.53967392,897.1147343,159.1968599,9.358695653,68.04208521,415.6123188,35.64371981,377.8297102,35.64371981,E,-0.8981943126766029,-0.4064286821151236,0.7493412384716736,0.4959313511977276
Ankara,ASIA,32.74927984,39.96205761,810.0,10.91364713,12.10721193,35.26064255,833.6074713,29.66740742,-4.660493812,34.32790118,6.168024693,20.65224276,21.06041156,0.575473253,399.1432099,52.41728395,10.24444444,40.99579941,136.082716,39.31111111,57.73209877,132.1617284,C,-2.4991921061048314,-0.7522867133178786,0.4260344827586204,0.5408414016129075
Dangriga,NORTH AMERICA,-88.225,16.97083333,2.000000002,25.94583416,8.225000381,64.00850105,162.1784897,31.94999981,19.10000038,12.84999943,26.93333435,25.45833397,27.49166679,23.75,2196.5,308.0,57.0,51.64553642,853.0,184.5,651.0,366.5,H,4.283512695047524,1.802801132463534,0.1471103896103899,0.14660586363884423
Anlu,ASIA,113.6847768,31.24141488,1212.91555,16.21219684,8.584701079,26.48021003,899.5186155,31.48410645,-0.934833578,32.41894019,24.90164699,4.773146287,26.91417809,4.773146287,1101.817903,184.0564906,22.02929795,55.92564619,482.3233925,94.39225401,457.7590502,94.39225401,E,-0.5161669709197975,0.2671440189175198,0.7493412384716736,0.7402958600715183
Ann Arbor,NORTH AMERICA,-83.68958333,42.25160061,328.0,9.15955285,10.54136181,28.14231076,1002.235749,28.42957317,-9.026829231,37.45640246,21.23191053,-2.48490853,21.23191053,-3.540091476,859.3231707,88.21036585,47.04573171,18.90206661,252.8932927,163.0945122,252.8932927,163.277439,B,-2.5320983909866164,1.264534491250221,0.4542760180995479,0.5208822256661126
Annapolis,NORTH AMERICA,-76.52842593,38.97925926,89.99999997,13.30990743,10.81481481,31.59713213,871.3625129,30.64777779,-3.578888859,34.22666651,21.7072222,2.431481507,23.92629619,2.431481507,1110.255556,108.6444444,72.75555556,12.36829081,310.7444444,245.9444444,307.2444444,245.9444444,E,-1.2030561507598045,1.8133066920620446,0.7493412384716736,0.7378285348763887
Annecy,EUROPE,6.100063131,45.92556818,132.0,9.906975999,9.790719704,34.59146615,673.9522566,25.77651509,-2.525757563,28.30227272,10.0074495,8.400252569,18.36414145,1.766540393,1025.643939,99.31818182,70.96969697,12.33838836,293.6212121,227.4393939,243.5,260.9545455,B,-1.6975320484753929,2.491656472488731,0.5457239819004517,0.5722390696499138
Anqing,ASIA,117.0360169,30.5606403,177.0,16.92634182,7.605508494,24.30632847,887.9015799,32.37175117,1.084180793,31.28757044,21.32476451,5.806591384,27.5887006,5.806591384,1502.322034,286.2824859,33.06214689,55.58657473,616.9322034,141.8022599,604.6158192,141.8022599,E,0.21942415876508795,1.2294074939699189,0.7493412384716736,0.7288580738508007
Ansan,ASIA,126.8453045,37.38910091,511.8269746,11.66615755,9.14263479,24.94056598,1028.059181,28.88824186,-7.767089822,36.65533191,23.41606201,-1.53487731,23.80406483,-1.53487731,1286.873574,306.9331816,24.56714675,89.40543771,740.7131718,80.25898188,723.8781822,80.25898188,E,-0.8543687809845372,1.013148781012839,0.055573122529644234,0.23711874056783322
Apatity,EUROPE,33.40220588,67.58370098,68.0,-1.117830902,7.230024555,20.00835758,982.5260441,18.02352953,-18.11176513,36.13529491,10.08529418,-7.77303925,11.35367643,-12.92941175,559.6617647,68.44117647,25.51470588,34.8023786,200.2941176,81.83823529,190.4264706,97.76470588,B,-4.924195876647445,2.202088720249724,0.4542760180995479,0.4287407942643196
Anshan,ASIA,123.0334916,41.20761412,1428.052935,8.857436825,10.52962224,24.00578422,1243.223418,28.18741451,-15.67340601,43.86082049,23.21790616,-7.482568322,23.21790616,-7.482568322,687.3492961,183.2889061,5.614985574,104.1991599,433.7871482,20.66567397,433.7871482,20.66567397,A,-2.8263299181143036,-0.482730247248895,0.9987781731909829,0.9897105727246727
Apatzingan,NORTH AMERICA,-102.3583333,19.09444444,27.0,26.07361129,15.96018526,69.45992392,164.5692992,37.43333379,14.45555542,22.97777833,26.46481521,25.97407412,28.15802475,23.89320988,913.8518518,202.8888889,3.185185185,109.3536886,578.2222222,11.62962963,186.6666667,34.4074074,G,2.5938915788682166,-3.087602949899712,0.9862783810463968,0.8043209273865468
Anshun,ASIA,105.7977847,26.23429487,884.0,14.76426281,8.037141749,32.04095496,639.3111313,26.50825779,1.423868779,25.08438892,21.68912137,6.244645544,22.01787325,6.244645544,1190.082579,231.949095,17.98755656,75.21973801,593.2986425,60.6979638,592.520362,60.6979638,E,-0.14267386547825184,0.8169590626950293,0.7493412384716736,0.7373784134186656
Antalaha,AFRICA,50.27395833,-14.9,8.000000011,24.9588542,7.748958171,60.48080254,191.8301506,31.42499971,18.61250043,12.81249928,27.0999999,24.17291689,27.14791655,22.51041675,2781.25,357.625,95.12500002,37.4603343,989.5000001,327.0000001,989.125,555.0000001,J,5.009202857730784,4.082734231752322,0.8980272108843527,0.9083163228861001
Antalya,ASIA,30.71067901,36.90743827,269.9999999,17.85273151,12.98805554,39.13814994,753.7959794,35.90740744,2.725185175,33.1822224,8.879567904,26.93722216,27.39277775,8.879567904,737.6333333,143.5925926,8.859259259,78.99361216,388.6740741,31.5,35.6962963,388.6740741,D,-0.2934549603249734,-1.6167610665340806,0.924294205052006,0.918958963549076
Anzhero Sudzhensk,ASIA,86.0269802,56.08985149,101.0,0.130569333,10.75074252,23.32749971,1287.19414,24.20396029,-21.88019786,46.08415819,15.86732681,-10.36254121,15.86732681,-15.9179867,527.4851485,69.69306931,18.14851485,40.74329391,204.5148515,65.44554456,204.5148515,83.28712871,A,-5.025454614861775,0.8886145076077586,0.9987781731909829,0.9879636224186151
Antananarivo,AFRICA,47.47254051,-18.87130594,864.0,18.81164642,11.29121338,65.68957443,242.5120038,26.37256943,9.186111102,17.18645838,21.18040125,15.45576776,21.19797451,15.45393519,1270.268519,296.5358796,8.291666666,105.6731035,800.84375,27.07291666,754.5891204,27.07291666,H,1.9451088293619847,0.025107716872876076,0.8463961038961035,0.8481322902874865
Antigonish,NORTH AMERICA,-61.996875,45.62291667,16.0,5.931250006,9.559374988,26.83801365,923.2513161,23.77499986,-11.84374994,35.6187489,3.626041666,13.47708321,17.12395859,-5.384374946,1347.625,145.75,89.125,16.82951093,424.75,286.875,300.875,323.25,B,-2.4389572579036116,3.689809148527561,0.5457239819004517,0.57402741389105
Antofagasta,SOUTH AMERICA,-70.39605263,-23.62134503,56.99999995,17.53932752,5.859941474,43.9661449,262.7312922,24.46315782,11.14210529,13.32105253,14.66257311,20.86578948,20.86578948,14.4669589,1.157894737,1.0,0.0,27.57071472,1.122807018,0.0,0.0,0.140350877,C,-0.8524648122353824,-0.7121414755075214,0.4260344827586204,0.5813531327100127
Araxa,SOUTH AMERICA,-46.94210526,-19.5877193,38.0,19.89791669,11.05153505,66.72359406,185.2189415,26.71052637,10.14736848,16.56315778,21.38815805,17.29605278,21.6184212,17.29385968,1653.157895,354.7368421,14.36842105,83.49259045,875.8157895,47.42105263,706.1315789,60.15789475,H,2.464434093693248,0.5746773058783585,0.8463961038961035,0.8494347996225883
Antsirabe,AFRICA,47.1461629,-19.86640772,354.0,16.11306499,12.56629004,65.05452403,273.0238564,24.89915254,5.584745767,19.31440677,18.84048968,12.32062148,18.84105465,12.32062148,1431.067797,295.3305085,14.15536723,89.77930065,807.3163842,46.75423729,803.480226,46.75423729,H,1.3833814041051922,0.6690817550874543,0.8463961038961035,0.8473803209073122
Antsiranana,AFRICA,49.288,-12.29566667,24.99999998,25.75449997,8.797000123,72.09991974,119.322894,31.38399979,19.18399994,12.19999985,26.66133308,24.52466667,26.77066666,24.08733337,1151.88,316.24,11.4,116.6806024,787.24,50.76000001,522.56,56.96,G,3.655925353411986,-0.8672439291146657,0.9862783810463968,0.9743481848153052
Antsohihy,AFRICA,47.98541667,-14.875,4.0,26.3729167,11.51666689,72.66120338,134.6221542,33.52500057,17.67500019,15.85000038,27.31249952,24.5583334,27.49166727,24.4083333,1559.75,452.25,2.0,123.1924152,1078.0,10.0,821.9999999,10.0,H,4.41675980881942,-0.9601606687022415,0.8463961038961035,0.8544586138290857
Antwerpen,EUROPE,4.529918948,51.1465281,1365.173988,10.40751696,7.599322158,33.89489918,554.6396814,22.96274462,0.543202463,22.41954226,7.782950085,6.387770716,17.32430057,3.800545749,786.9622772,75.7561092,49.61242897,13.30775004,220.3504345,163.8811228,207.0713962,189.3786984,B,-1.894144454666472,2.1978315993115625,0.5457239819004517,0.5762329660449674
Anuradhapura,ASIA,80.41221374,8.324300254,131.0,27.45970098,8.444592774,67.80272278,135.7888207,33.49541977,21.04045817,12.4549616,26.26857487,28.43702276,28.73384222,25.57582681,1317.839695,250.3740458,10.06870229,76.90123091,708.5267175,78.04580152,259.3282443,523.091603,G,3.841090236944796,-0.4838591860572691,0.9862783810463968,0.9737195238927628
Anxi,ASIA,95.778125,40.52604167,16.0,8.873697937,15.9744792,33.76333928,1186.236305,30.96249986,-16.34999967,47.31249952,22.49374998,-3.058333262,22.49374998,-6.536458283,49.25,12.125,1.0,70.55725049,28.125,3.500000001,28.125,3.500000001,A,-3.960051177587376,-2.2658913958180564,0.9987781731909829,0.9881136719248189
Anyang,ASIA,114.453169,36.12551164,2525.694958,13.89420488,10.82061313,28.62125412,1025.56736,31.67361255,-6.131344539,37.80495703,24.49229237,0.651026813,26.02642135,0.651026813,547.1650901,157.300469,3.422407114,108.9885238,352.7353538,15.51677938,345.8374122,15.51677938,A,-1.6151740352865707,-1.4458301606096915,0.9987781731909829,0.6481615018748376
Aomori,ASIA,140.7333933,40.83333333,139.0,10.22149282,7.67799763,24.4775313,881.3653521,27.04172663,-4.30071944,31.34244596,18.46318941,7.819064744,21.17026391,-0.328417265,1254.784173,140.8920863,69.89928058,22.85021287,390.8776978,221.5035971,380.4964029,336.8417266,B,-1.3244073595570265,2.7083884344427496,0.5457239819004517,0.5767575680603807
Apia,POLYNESIA,-171.7861111,-13.83511905,42.00000002,26.25158737,6.367857116,80.89973486,53.76594771,30.19999985,22.32857136,7.87142849,26.76944447,25.59047626,26.86785725,25.55119051,3215.738095,464.4047619,135.6190476,40.29852399,1214.809524,434.9047619,1098.428572,471.4047619,J,6.477988124232689,5.615556300938392,0.8980272108843527,0.9098678334024722
Apodi,SOUTH AMERICA,-37.8,-5.658333333,0.999999999,27.15833283,10.58333397,68.27957154,125.604599,34.29999924,18.79999924,15.5,27.51666641,27.96666718,28.39999962,25.28333283,797.0,201.0,3.000000003,103.8982468,497.0,10.00000001,73.00000001,118.0,G,2.8816821108830974,-2.422850673170989,0.9862783810463968,0.9747494011852226
Apolo,SOUTH AMERICA,-68.42083333,-14.7125,4.0,20.57916689,12.26249981,74.5439167,117.0193577,28.02500009,11.57500029,16.44999981,21.45833397,18.97916651,21.66666698,18.89166689,1369.0,211.5,27.0,61.84102821,616.0,99.75,457.25,105.5,G,2.0752838321613423,0.22077778921762656,0.9862783810463968,0.973708004366683
Appleton,NORTH AMERICA,-88.41093037,44.25424771,311.8951695,7.288225283,10.79484618,25.94515792,1110.40206,27.81571421,-13.79008404,41.60579821,20.37047013,-7.00217113,20.4916056,-7.00217113,783.727138,96.68878083,26.43258613,37.60716312,275.7153128,94.63725366,275.5901774,94.63725366,A,-3.259497661768338,0.6584052935005318,0.9987781731909829,0.9885124654353806
Apsheronsk,EUROPE,39.72344961,44.46143411,43.0,11.54777128,9.378100794,30.96506589,790.6546659,27.51860463,-2.76744185,30.28604623,3.389147354,11.24031007,21.14612389,1.691860498,1249.55814,156.5348837,84.46511628,23.5054964,428.1162791,258.6744186,272.2325581,379.5348837,B,-1.3064426679122574,2.9357818218426437,0.5457239819004517,0.5781577624868608
Apucarana,SOUTH AMERICA,-51.45545455,-23.54272727,55.0,18.48212131,12.4772728,63.47837774,269.8336931,27.59636369,7.940000153,19.65636382,21.51030312,16.13151521,21.51030312,14.95151528,1520.090909,196.0363636,60.87272727,33.15766525,541.9818182,233.8545455,541.9818182,282.4727273,E,1.6133741627636724,1.8595128138560808,0.7493412384716736,0.6335696893629283
Aqadyr,ASIA,72.86,48.27,5.0,3.626666832,12.63666649,25.9479805,1366.588379,28.85999947,-19.83999977,48.69999924,18.27333298,-11.90333328,19.96666718,-13.39000015,239.6,28.4,10.4,25.483609,81.0,46.6,74.0,52.0,A,-4.996894363721934,-0.3625984933105257,0.9987781731909829,0.9892673381661462
Aqsay,ASIA,52.99460784,51.1745098,17.0,5.656617726,10.67205895,23.03518161,1340.993796,30.0,-16.32941111,46.32941168,21.70980453,-3.526470479,21.70980453,-10.80490152,310.7647059,37.35294118,17.52941176,21.7968603,96.0,57.23529411,96.0,69.76470588,A,-4.229211164930714,-0.2179654605683413,0.9987781731909829,0.9877134624336544
Aqtau,ASIA,51.23452381,43.63571429,7.0,12.65178571,8.115476335,22.44362667,1068.777919,32.02857126,-4.128571306,36.15714209,12.02619048,25.83095251,25.83095251,-0.309523799,120.7142857,15.28571428,6.0,28.28940473,40.42857143,19.28571429,19.28571429,27.42857143,C,-2.637711501016979,-1.1916582524925659,0.4260344827586204,0.5300744057136495
Aracatuba,SOUTH AMERICA,-50.44694093,-21.2021097,79.0,22.34957818,12.13438809,63.53603286,255.4960663,30.50886058,11.41012648,19.09873414,24.96097046,19.03354432,24.96097046,18.85147677,1223.101266,222.9493671,17.84810127,68.58213545,590.1772152,81.5443038,590.1772152,111.0632911,G,2.1649195129025194,-0.30961414040009316,0.9862783810463968,0.974912602976726
Aqtobe,ASIA,57.18559028,50.29444444,96.0,4.90234375,11.53506948,24.05585808,1378.573652,29.94166652,-18.01041659,47.95208287,18.12812496,-11.05711805,21.34565965,-12.18645829,324.03125,34.52083333,21.33333333,13.50821005,93.02083333,69.64583333,90.85416666,76.16666667,A,-4.684048006725107,0.03833567999378613,0.9987781731909829,0.9880756334124968
Aquidauana,SOUTH AMERICA,-55.79325397,-20.46686508,42.0,24.26309508,12.24206348,64.00707318,252.8475818,32.73571387,13.60952393,19.12618964,26.7099207,20.84087308,26.7099207,20.84047617,1453.642857,229.7619048,31.0952381,52.23822648,616.9047619,131.5238095,616.9047619,158.8571428,G,2.7674073370997445,0.0822419572903227,0.9862783810463968,0.9735345897496358
Ar Ramadi,ASIA,43.29282407,33.43310185,72.0,22.77511573,14.98125004,36.63244852,939.115376,43.92777761,3.036111109,40.89166652,10.87615738,33.79583343,33.79583343,10.87615738,117.0555556,22.34722222,0.0,85.5129083,60.91666667,0.0,0.0,60.91666667,D,-0.6936043840076501,-4.118229606858963,0.924294205052006,0.9186709123705351
Ar Raqqah,ASIA,39.00924242,35.95636364,55.0,19.33287881,13.20212121,36.1611883,914.58128,38.69454505,2.187272713,36.50727255,9.525151496,30.31484822,30.31484822,7.979090864,167.5818182,31.90909091,0.0,79.67986839,88.1090909,1.0,1.0,81.43636363,D,-1.1402169677250917,-3.1473219406840536,0.924294205052006,0.9174839569246143
Ar Rutbah,ASIA,40.27916667,33.04166667,10.0,19.22208328,14.71416655,39.9950264,843.0354248,38.19000053,1.399999976,36.78999901,10.40333347,29.13499985,29.13499985,8.723333359,117.2,20.3,0.0,75.30578003,52.0,0.0,0.0,50.0,D,-1.2343220842628493,-3.301324135795105,0.924294205052006,0.9176723720240781
Aracaju,SOUTH AMERICA,-37.10991736,-10.89848485,242.0,25.71646005,6.95571622,69.21520104,113.8877007,30.66074397,20.60950423,10.05123975,25.54139115,26.52809915,26.95165291,24.23491736,1536.834711,273.5661157,41.69008265,61.32029428,713.0826446,148.946281,260.9173554,494.4132232,G,3.8115137871494142,0.944562327129742,0.9862783810463968,0.9324238429801665
Aracati,SOUTH AMERICA,-37.77083333,-4.558333333,6.0,26.98611132,9.294443925,79.32692337,62.70592117,32.81666629,21.10000038,11.7166659,26.83611139,27.53055509,27.75,26.23888906,1094.5,276.6666667,4.499999998,106.4381727,686.5,15.5,122.8333333,267.8333333,G,3.722095448520466,-1.6073989772695625,0.9862783810463968,0.9753475648032939
Aracuai,SOUTH AMERICA,-42.06858974,-16.85192308,13.0,24.25801277,13.64294866,69.25382585,172.1895705,33.16153805,13.46153839,19.69999974,25.30897449,21.80512839,25.9961539,21.80512839,846.1538461,167.0,3.769230768,89.78084271,475.8461538,15.38461538,327.3846154,15.38461538,G,2.0654869638618516,-2.1157659144147036,0.9862783810463968,0.973474914916647
Arad,EUROPE,21.3119186,46.18391473,86.00000001,10.57897285,10.68875971,33.21677212,819.1328558,27.76046516,-4.418604723,32.1790697,18.88720932,1.892829485,20.41511624,0.267635628,582.9302326,79.51162791,31.02325581,28.60939904,204.6744186,99.63953488,196.3488372,112.8023256,B,-2.2503882980734984,0.45139146792035517,0.5457239819004517,0.583468354221642
Araguaina,SOUTH AMERICA,-48.20931373,-7.183333333,17.0,25.65808824,11.80049038,69.99621043,57.99267713,34.61764683,17.75882351,16.85882333,25.04313749,25.88823509,26.4882348,25.04215712,1817.294118,280.8823529,17.23529412,65.62923521,830.2352941,81.70588235,250.3529412,815.1764706,I,3.9656303817177774,0.06476439649884325,0.21590909090909094,0.2116729598420414
